{"records": [{"key": "JDQ4MTAxMiM1MSMkMSMkMCMkOTkkNTgxOTYxIzExIyQxIyQzIyQ4OSQyNjEwMDIjNTEjJDEjJDYjJDgz", "name": "(복지)예사랑병원", "kind": "정신병원", "sido": "부산", "sigungu": "부산서구", "address": "부산광역시 서구 옥천로130번길 38, (아미동2가)", "phone": "248-9000", "homepage": null, "totalDoctors": 2, "lat": 35.0973247, "lng": 129.0133103, "kidsCare": false, "erCare": false}, {"key": "JDQ4MTYyMiM4MSMkMSMkNCMkOTkkMzgxMzUxIzExIyQxIyQ3IyQ5MiQzNjE4MzIjNDEjJDEjJDgjJDgz", "name": "(의) 내경의료재단 울산제일병원", "kind": "병원", "sido": "울산", "sigungu": "울산남구", "address": "울산광역시 남구 남산로354번길 26, (신정동)", "phone": "052-220-3300", "homepage": "http://www.ujh.co.kr", "totalDoctors": 9, "lat": 35.548283, "lng": 129.307013, "kidsCare": false, "erCare": false}, {"key": "JDQ4MTg4MSM1MSMkMSMkMCMkOTkkMzgxMzUxIzQxIyQxIyQ3IyQwMyQ0NjEwMDIjNTEjJDEjJDIjJDgz", "name": "(의)가산의료재단 광동병원", "kind": "병원", "sido": "서울", "sigungu": "강남구", "address": "서울특별시 강남구 봉은사로 612, (삼성동)", "phone": "2222-4888", "homepage": "https://www.ekwangdong.co.kr", "totalDoctors": 12, "lat": 37.5142863, "lng": 127.0621662, "kidsCare": false, "erCare": false}, {"key": "JDQ4MTYyMiM4MSMkMSMkNCMkOTkkMzgxMzUxIzIxIyQyIyQ1IyQwMCQ0NjEwMDIjNDEjJDEjJDgjJDgz", "name": "(의)경빈의료재단 김해센텀병원", "kind": "병원", "sido": "경남", "sigungu": "김해시", "address": "경상남도 김해시 구지로 56, 김해센텀병원 지하2~5층 6층 일부호 (내동)", "phone": "055-330-9100", "homepage": null, "totalDoctors": 6, "lat": 35.2393008, "lng": 128.8692937, "kidsCare": true, "erCare": false}, {"key": "JDQ4MTYyMiM4MSMkMSMkNCMkOTkkNTgxOTYxIzExIyQxIyQzIyQ4OSQzNjE0ODEjNjEjJDEjJDgjJDgz", "name": "(의)고담의료재단마더스병원", "kind": "정신병원", "sido": "울산", "sigungu": "울산남구", "address": "울산광역시 남구 화합로 107, (달동)", "phone": "052-270-7000", "homepage": null, "totalDoctors": 8, "lat": 35.5343999, "lng": 129.3404999, "kidsCare": false, "erCare": false}, {"key": "JDQ4MTYyMiM1MSMkMSMkMCMkMTMkMzgxMTkxIzExIyQxIyQzIyQ4OSQzNjE0ODEjNjEjJDEjJDAjJDgz", "name": "(의)광혜원한방병원", "kind": "한방병원", "sido": "인천", "sigungu": "인천미추홀구", "address": "인천광역시 미추홀구 염창로 63, 2~3,4층일부층 (주안동)", "phone": "032-874-7500", "homepage": null, "totalDoctors": 0, "lat": 37.4658616, "lng": 126.6810146, "kidsCare": false, "erCare": false}, {"key": "JDQ4MTYyMiM1MSMkMSMkMCMkODkkMzgxMzUxIzExIyQxIyQ3IyQ3OSQyNjEwMDIjNDEjJDEjJDgjJDgz", "name": "(의)나사렛의료재단 나사렛국제병원", "kind": "종합병원", "sido": "인천", "sigungu": "인천연수구", "address": "인천광역시 연수구 먼우금로 98,  (동춘동)", "phone": "032-899-9999", "homepage": "http://www.nasaret.co.kr/", "totalDoctors": 60, "lat": 37.407958, "lng": 126.6704928, "kidsCare": true, "erCare": true}, {"key": "JDQ4MTYyMiM4MSMkMSMkNCMkOTkkMzgxMzUxIzExIyQxIyQ3IyQ2MiQzNjE4MzIjNDEjJDEjJDQjJDgz", "name": "(의)동남의료재단 동남병원", "kind": "정신병원", "sido": "경남", "sigungu": "김해시", "address": "경상남도 김해시 가야로51번길 42, (삼계동)", "phone": "055-331-0454", "homepage": null, "totalDoctors": 6, "lat": 35.2728583, "lng": 128.8692375, "kidsCare": false, "erCare": false}, {"key": "JDQ4MTYyMiM4MSMkMSMkNCMkOTkkNTgxMzUxIzIxIyQxIyQ1IyQ4OSQzNjE4MzIjNjEjJDEjJDAjJDgz", "name": "(의)밀성학원의료재단 성모아하브요양병원", "kind": "요양병원", "sido": "경남", "sigungu": "김해시", "address": "경상남도 김해시 김해대로 2479-1, (삼정동)", "phone": "055-320-2080", "homepage": null, "totalDoctors": 5, "lat": 35.2281381, "lng": 128.8980324, "kidsCare": false, "erCare": false}, {"key": "JDQ4MTYyMiM4MSMkMSMkMCMkOTkkMzgxMzUxIzExIyQxIyQ3IyQ5OSQzNjE4MzIjNDEjJDEjJDgjJDgz", "name": "(의)서봉의료재단 보강병원", "kind": "병원", "sido": "대구", "sigungu": "대구달서구", "address": "대구광역시 달서구 월배로 102, (진천동)", "phone": "053-641-9200", "homepage": "http://www.bogang.co.kr/", "totalDoctors": 14, "lat": 35.8137187, "lng": 128.5256832, "kidsCare": false, "erCare": false}, {"key": "JDQ4MTAxMiM1MSMkMSMkMCMkOTkkMzgxMzUxIzExIyQxIyQ3IyQ3MiQzNjEyMjIjNDEjJDEjJDgjJDgz", "name": "(의)서일의료재단기장병원", "kind": "병원", "sido": "부산", "sigungu": "부산기장군", "address": "부산광역시 기장군 기장읍 대청로72번길 6-6, 6", "phone": "051-723-0171", "homepage": "http://www.gjhp.kr/", "totalDoctors": 15, "lat": 35.2357991, "lng": 129.2169211, "kidsCare": false, "erCare": false}, {"key": "JDQ4MTYyMiM4MSMkMSMkNCMkOTkkMzgxMzUxIzMxIyQxIyQ3IyQ3OSQzNjEyMjIjNjEjJDEjJDAjJDgz", "name": "(의)성덕의료재단 간절곶자연병원", "kind": "병원", "sido": "울산", "sigungu": "울산울주군", "address": "울산광역시 울주군 서생면 용리길 165-11, (서생면)", "phone": "052-246-0002", "homepage": null, "totalDoctors": 1, "lat": 35.3667274, "lng": 129.3226471, "kidsCare": false, "erCare": false}, {"key": "JDQ4MTYyMiM1MSMkMSMkMCMkODkkMzgxMzUxIzExIyQxIyQzIyQ4MiQ0NjEwMDIjNjEjJDEjJDAjJDgz", "name": "(의)성세의료재단 뉴성민병원", "kind": "종합병원", "sido": "인천", "sigungu": "인천서구", "address": "인천광역시 서구 신석로 70, (석남동)", "phone": "032-726-1000", "homepage": "http://www.smgh.co.kr", "totalDoctors": 27, "lat": 37.5097753, "lng": 126.6698519, "kidsCare": true, "erCare": true}, {"key": "JDQ4MTYyMiM4MSMkMSMkNCMkOTkkNTgxMzUxIzIxIyQxIyQ1IyQ4MiQzNjEyMjIjNTEjJDEjJDIjJDgz", "name": "(의)수의료재단 서청솔요양병원", "kind": "요양병원", "sido": "경남", "sigungu": "김해시", "address": "경상남도 김해시 금관대로1084번길 15, (흥동)", "phone": "055-310-5500", "homepage": null, "totalDoctors": 8, "lat": 35.2240003, "lng": 128.8507902, "kidsCare": false, "erCare": false}, {"key": "JDQ4MTYyMiM1MSMkMSMkMCMkOTkkMzgxOTYxIzIxIyQxIyQxIyQ4OSQzNjEyMjIjNjEjJDEjJDgjJDgz", "name": "(의)수지의료재단 용인수지병원", "kind": "병원", "sido": "경기", "sigungu": "용인수지구", "address": "경기도 용인시 수지구 풍덕천로22번길 15, 지하1,지상2~6층 (풍덕천동)", "phone": "031-262-0050", "homepage": null, "totalDoctors": 2, "lat": 37.3168605, "lng": 127.0848582, "kidsCare": true, "erCare": false}, {"key": "JDQ4MTYyMiM1MSMkMSMkNCMkOTkkNTgxOTYxIzExIyQxIyQzIyQ3OSQzNjE4MzIjNDEjJDEjJDgjJDgz", "name": "(의)아나의료재단 강릉아나병원", "kind": "정신병원", "sido": "강원", "sigungu": "강릉시", "address": "강원특별자치도 강릉시 용지로 129-0,  (옥천동)", "phone": "033-610-1100", "homepage": null, "totalDoctors": 7, "lat": 37.7604484, "lng": 128.9029668, "kidsCare": false, "erCare": false}, {"key": "JDQ4MTAxMiM1MSMkMSMkMCMkOTkkNTgxMzUxIzIxIyQxIyQxIyQ2MiQyNjEyMjIjNDEjJDEjJDgjJDgz", "name": "(의)영님의료재단 개금중앙요양병원", "kind": "요양병원", "sido": "부산", "sigungu": "부산진구", "address": "부산광역시 부산진구 개금온정로 5, 지하1,지상3층 (개금동, 성원상떼뷰)", "phone": "051-582-7001", "homepage": "http://www.개금중앙요양병원.kr/", "totalDoctors": 6, "lat": 35.1537626, "lng": 129.0247934, "kidsCare": true, "erCare": false}, {"key": "JDQ4MTYyMiM1MSMkMSMkMCMkODkkMzgxMzUxIzExIyQxIyQzIyQxMyQzNjEwMDIjNTEjJDEjJDYjJDgz", "name": "(의)영문의료재단 다보스병원", "kind": "종합병원", "sido": "경기", "sigungu": "용인처인구", "address": "경기도 용인시 처인구 백옥대로1082번길 18, 다보스종합병원 (김량장동)", "phone": "031-8021-2114", "homepage": "http://www.davoshospital.co.kr", "totalDoctors": 38, "lat": 37.2314882, "lng": 127.2114647, "kidsCare": true, "erCare": true}, {"key": "JDQ4MTYyMiM1MSMkMSMkMCMkOTkkMzgxOTYxIzIxIyQxIyQxIyQ4OSQzNjE0ODEjNDEjJDEjJDQjJDgz", "name": "(의)유일재단 하나애병원", "kind": "병원", "sido": "경기", "sigungu": "용인처인구", "address": "경기도 용인시 처인구 백옥대로916번길 48, (남동)", "phone": "031-339-1000", "homepage": null, "totalDoctors": 6, "lat": 37.219342, "lng": 127.2135214, "kidsCare": false, "erCare": false}, {"key": "JDQ4MTYyMiM4MSMkMSMkNCMkOTkkMzgxMzUxIzExIyQyIyQ3IyQwMCQzNjE4MzIjNTEjJDEjJDIjJDgz", "name": "(의)인석의료재단 보람병원", "kind": "병원", "sido": "울산", "sigungu": "울산남구", "address": "울산광역시 남구 돋질로336번길 10, (삼산동)", "phone": "052-278-0114", "homepage": "http://ulsan.imc-boram.co.kr/", "totalDoctors": 27, "lat": 35.5425577, "lng": 129.3410075, "kidsCare": true, "erCare": false}, {"key": "JDQ4MTAxMiM1MSMkMSMkMCMkOTkkNTgxMzUxIzExIyQxIyQzIyQ4MiQyNjE4MzIjNDEjJDEjJDgjJDgz", "name": "(의)피터의료재단새소망요양병원", "kind": "요양병원", "sido": "부산", "sigungu": "부산기장군", "address": "부산광역시 기장군 기장읍 기장해안로 552, (기장읍)", "phone": "051-722-4848", "homepage": null, "totalDoctors": 4, "lat": 35.2228262, "lng": 129.226905, "kidsCare": false, "erCare": false}, {"key": "JDQ4MTYyMiM1MSMkMSMkMCMkOTkkNTgxMzUxIzQxIyQxIyQ3IyQxMyQzNjE0ODEjODEjJDEjJDIjJDgz", "name": "(의)현당의료재단 늘봄요양병원", "kind": "요양병원", "sido": "경기", "sigungu": "용인수지구", "address": "경기도 용인시 수지구 포은대로59번길 17, 광교복합의료센터,지하1층,1층일부,2층~4층,6층 (상현동)", "phone": "031-659-7800", "homepage": null, "totalDoctors": 6, "lat": 37.3010717, "lng": 127.0658441, "kidsCare": false, "erCare": false}, {"key": "JDQ4MTYyMiM2MSMkMSMkNiMkMTMkMzgxMTkxIzExIyQxIyQzIyQ4OSQzNjE0ODEjODEjJDEjJDYjJDgz", "name": "(의)혜민의료재단 우리한방병원", "kind": "한방병원", "sido": "전북", "sigungu": "김제시", "address": "전북특별자치도 김제시 중앙로 209, (신풍동)", "phone": "063-545-5511", "homepage": null, "totalDoctors": 2, "lat": 35.7985051, "lng": 126.8959871, "kidsCare": false, "erCare": false}, {"key": "JDQ4MTYyMiM4MSMkMSMkNCMkOTkkNTgxMzUxIzExIyQyIyQzIyQwMCQyNjEyMjIjODEjJDEjJDYjJDgz", "name": "(의)환명의료재단 경상남도립김해노인전문병원", "kind": "요양병원", "sido": "경남", "sigungu": "김해시", "address": "경상남도 김해시 김해대로 1814-39, (삼계동)", "phone": "055-330-2000", "homepage": "http://gimhaenoin.co.kr/", "totalDoctors": 6, "lat": 35.2616213, "lng": 128.8610034, "kidsCare": false, "erCare": false}, {"key": "JDQ4MTYyMiM1MSMkMSMkMCMkOTkkMzgxMzUxIzIxIyQxIyQ5IyQ4OSQyNjEwMDIjNTEjJDEjJDIjJDgz", "name": "(의)효심의료재단 용인서울병원", "kind": "병원", "sido": "경기", "sigungu": "용인처인구", "address": "경기도 용인시 처인구 고림로 81, (고림동)", "phone": "031-337-0114", "homepage": null, "totalDoctors": 11, "lat": 37.2403912, "lng": 127.2145364, "kidsCare": false, "erCare": false}, {"key": "JDQ4MTYyMiM4MSMkMSMkMCMkODkkMzgxMzUxIzExIyQxIyQzIyQ2MiQ0NjEwMDIjNDEjJDEjJDgjJDgz", "name": "(재)미리내천주성삼성직수도회천주성삼병원", "kind": "종합병원", "sido": "대구", "sigungu": "대구수성구", "address": "대구광역시 수성구 달구벌대로 3190, (신매동, 천주성삼병원)", "phone": "053-790-1000", "homepage": null, "totalDoctors": 23, "lat": 35.8402518, "lng": 128.7057102, "kidsCare": false, "erCare": true}, {"key": "JDQ4MTYyMiM1MSMkMSMkOCMkOTkkMzgxMzUxIzExIyQxIyQzIyQ5MiQ0NjE0ODEjNjEjJDEjJDQjJDgz", "name": "(재)예수의꽃동네유지재단 인곡자애병원", "kind": "병원", "sido": "충북", "sigungu": "음성군", "address": "충청북도 음성군 맹동면 꽃동네길 37-0,", "phone": "043-879-0301", "homepage": null, "totalDoctors": 3, "lat": 36.941804, "lng": 127.5776409, "kidsCare": true, "erCare": false}, {"key": "JDQ4MTAxMiM1MSMkMSMkMCMkOTkkMzgxMzUxIzIxIyQxIyQ5IyQ4OSQzNjEyMjIjNDEjJDEjJDgjJDgz", "name": "(재)일신기독교선교회 정관일신기독병원", "kind": "병원", "sido": "부산", "sigungu": "부산기장군", "address": "부산광역시 기장군 정관읍 정관6로 31, 3-8, 10층", "phone": "051-780-0600", "homepage": null, "totalDoctors": 14, "lat": 35.3197034, "lng": 129.1774513, "kidsCare": true, "erCare": false}, {"key": "JDQ4MTYyMiM1MSMkMSMkMCMkMTMkMzgxMTkxIzExIyQxIyQzIyQ4OSQzNjEyMjIjNDEjJDEjJDgjJDgz", "name": "(학교법인)동국대학교 한의과대학 분당한방병원", "kind": "한방병원", "sido": "경기", "sigungu": "성남분당구", "address": "경기도 성남시 분당구 불정로 268, (수내동, 동국대한방병원)", "phone": "031-710-3700", "homepage": "http://web.dumc.or.kr/boondang_H/index.htm", "totalDoctors": 22, "lat": 37.3672695, "lng": 127.1279856, "kidsCare": false, "erCare": false}, {"key": "JDQ4MTYyMiM1MSMkMSMkMCMkMTMkMzgxMTkxIzIxIyQxIyQ5IyQ3MiQ0NjEwMDIjNDEjJDEjJDQjJDgz", "name": "100년 한방병원", "kind": "한방병원", "sido": "경기", "sigungu": "남양주시", "address": "경기도 남양주시 진접읍 해밀예당1로235번길 3-5, 5~7층(일부),8층", "phone": "031-572-3375", "homepage": null, "totalDoctors": 3, "lat": 37.7212443, "lng": 127.2033866, "kidsCare": false, "erCare": false}, {"key": "JDQ4MTg4MSM1MSMkMSMkMCMkOTkkMzgxMzUxIzUxIyQxIyQxIyQ3OSQzNjEwMDIjODEjJDEjJDIjJDgz", "name": "123스텝업병원", "kind": "병원", "sido": "서울", "sigungu": "강동구", "address": "서울특별시 강동구 올림픽로 628-3, 지하1, 지상2~9층 (성내동)", "phone": "02-6485-1234", "homepage": null, "totalDoctors": 4, "lat": 37.537382, "lng": 127.1234953, "kidsCare": false, "erCare": false}, {"key": "JDQ4MTg4MSM1MSMkMSMkMCMkMTMkMzgxMTkxIzExIyQxIyQ3IyQ3MiQ0NjEwMDIjNjEjJDEjJDQjJDgz", "name": "21C메트로한방병원", "kind": "한방병원", "sido": "서울", "sigungu": "은평구", "address": "서울특별시 은평구 갈현로 24, 2층 201,202호 (신사동)", "phone": "02-388-1075", "homepage": null, "totalDoctors": 2, "lat": 37.6000483, "lng": 126.9104461, "kidsCare": false, "erCare": false}, {"key": "JDQ4MTYyMiM4MSMkMSMkNCMkOTkkNTgxOTYxIzExIyQxIyQzIyQ5OSQyNjE0ODEjNDEjJDEjJDgjJDgz", "name": "21C한일병원", "kind": "정신병원", "sido": "경남", "sigungu": "거제시", "address": "경상남도 거제시 사등면 지석로 70, 70", "phone": "055-634-0900", "homepage": null, "totalDoctors": 4, "lat": 34.9015685, "lng": 128.5206528, "kidsCare": false, "erCare": false}, {"key": "JDQ4MTYyMiM1MSMkMSMkMCMkNjIkMzgxMzUxIzExIyQxIyQ3IyQ3OSQ0NjEwMDIjNDEjJDEjJDgjJDgz", "name": "22세기서울치과병원", "kind": "치과병원", "sido": "인천", "sigungu": "인천연수구", "address": "인천광역시 연수구 컨벤시아대로 69, 415호 (송도동, 송도 밀레니엄)", "phone": "032-858-2080", "homepage": null, "totalDoctors": 3, "lat": 37.3957057, "lng": 126.6509615, "kidsCare": false, "erCare": false}, {"key": "JDQ4MTYyMiM1MSMkMSMkMCMkMTMkMzgxMTkxIzIxIyQxIyQ1IyQ5OSQzNjE0ODEjNDEjJDEjJDgjJDgz", "name": "365 엄지한방병원", "kind": "한방병원", "sido": "인천", "sigungu": "인천미추홀구", "address": "인천광역시 미추홀구 한나루로 420, 학익동 월드타워 3~5층 (학익동)", "phone": "032-721-7773", "homepage": null, "totalDoctors": 5, "lat": 37.4446655, "lng": 126.6659833, "kidsCare": false, "erCare": false}, {"key": "JDQ4MTYyMiM1MSMkMSMkNCMkMTMkMzgxMTkxIzExIyQxIyQzIyQ4OSQ0NjE0ODEjNDEjJDEjJDgjJDgz", "name": "365다담은한방병원", "kind": "한방병원", "sido": "강원", "sigungu": "춘천시", "address": "강원특별자치도 춘천시 춘천로 188-0,  10층 (효자동)", "phone": "033-910-0993", "homepage": null, "totalDoctors": 7, "lat": 37.8762547, "lng": 127.7352717, "kidsCare": false, "erCare": false}, {"key": "JDQ4MTg4MSM1MSMkMSMkMCMkMTMkMzgxMTkxIzExIyQxIyQ3IyQxMyQzNjEwMDIjNDEjJDEjJDgjJDgz", "name": "365다시재한방병원", "kind": "한방병원", "sido": "서울", "sigungu": "송파구", "address": "서울특별시 송파구 위례서로 248, 3층 일부, 4층 (거여동)", "phone": "02-512-0750", "homepage": null, "totalDoctors": 4, "lat": 37.4866428, "lng": 127.1422629, "kidsCare": false, "erCare": false}, {"key": "JDQ4MTAxMiM1MSMkMSMkMCMkNjIkMzgxMzUxIzExIyQxIyQzIyQ3MiQzNjE0ODEjNzEjJDEjJDgjJDgz", "name": "365드림치과병원", "kind": "치과병원", "sido": "부산", "sigungu": "부산수영구", "address": "부산광역시 수영구 연수로 408, 8-12층 (광안동)", "phone": "1660-2811", "homepage": null, "totalDoctors": 7, "lat": 35.1681243, "lng": 129.1135868, "kidsCare": false, "erCare": false}, {"key": "JDQ4MTYyMiM1MSMkMSMkMCMkNjIkMzgxMzUxIzExIyQxIyQ3IyQ2MiQyNjEyMjIjNTEjJDEjJDIjJDgz", "name": "365래온치과병원", "kind": "치과병원", "sido": "경기", "sigungu": "평택시", "address": "경기도 평택시 고덕국제대로 94, 우성고덕타워 8층 805호~808호 (고덕동)", "phone": "031-662-2228", "homepage": null, "totalDoctors": 5, "lat": 37.045272, "lng": 127.0442027, "kidsCare": false, "erCare": false}, {"key": "JDQ4MTg4MSM1MSMkMSMkMCMkMTMkMzgxMTkxIzExIyQxIyQ3IyQxMyQyNjE4MzIjNjEjJDEjJDQjJDgz", "name": "365매일한방병원", "kind": "한방병원", "sido": "서울", "sigungu": "동대문구", "address": "서울특별시 동대문구 천호대로 3, 지하2층, 지상1~2층 (신설동)", "phone": "02-929-0365", "homepage": null, "totalDoctors": 8, "lat": 37.5753515, "lng": 127.0243625, "kidsCare": false, "erCare": false}, {"key": "JDQ4MTg4MSM1MSMkMSMkMCMkMTMkMzgxMTkxIzIxIyQxIyQxIyQ2MiQyNjE0ODEjNDEjJDEjJDgjJDgz", "name": "365매일한방병원", "kind": "한방병원", "sido": "서울", "sigungu": "강북구", "address": "서울특별시 강북구 오패산로 414, 2~4층 (번동)", "phone": "02-903-0365", "homepage": null, "totalDoctors": 8, "lat": 37.6376936, "lng": 127.0264168, "kidsCare": false, "erCare": false}, {"key": "JDQ4MTYyMiM1MSMkMSMkMCMkMTMkMzgxMTkxIzIxIyQxIyQ1IyQwMyQyNjEyMjIjODEjJDEjJDIjJDgz", "name": "365매일한방병원", "kind": "한방병원", "sido": "경기", "sigungu": "안양동안구", "address": "경기도 안양시 동안구 시민대로 199, (주)신한방 평촌지구 매장1 4층, 5층 (비산동)", "phone": "031-341-3650", "homepage": null, "totalDoctors": 9, "lat": 37.3922438, "lng": 126.9530744, "kidsCare": false, "erCare": false}, {"key": "JDQ4MTYyMiM1MSMkMSMkMCMkMTMkMzgxMTkxIzIxIyQyIyQ5IyQwMCQyNjEyMjIjODEjJDEjJDIjJDgz", "name": "365매일한방병원", "kind": "한방병원", "sido": "경기", "sigungu": "성남분당구", "address": "경기도 성남시 분당구 성남대로916번길 5, 관보골든쇼핑스포츠빌딩 4,5층 503,504호 (야탑동)", "phone": "031-708-3650", "homepage": null, "totalDoctors": 8, "lat": 37.411548, "lng": 127.1298679, "kidsCare": false, "erCare": false}, {"key": "JDQ4MTYyMiM1MSMkMSMkMCMkMTMkMzgxMTkxIzIxIyQyIyQ5IyQwMCQzNjEyMjIjNDEjJDEjJDgjJDgz", "name": "365매일한방병원", "kind": "한방병원", "sido": "경기", "sigungu": "광주시", "address": "경기도 광주시 광주대로 31, GA타워 6층 (경안동)", "phone": "031-761-3651", "homepage": null, "totalDoctors": 8, "lat": 37.4093844, "lng": 127.2602612, "kidsCare": false, "erCare": false}, {"key": "JDQ4MTYyMiM3MSMkMSMkMCMkMTMkMzgxMTkxIzExIyQxIyQ3IyQ4MiQ0NjE0ODEjODEjJDEjJDIjJDgz", "name": "365매일한방병원", "kind": "한방병원", "sido": "전남", "sigungu": "목포시", "address": "전남광주통합특별시 목포시 하당로 253-0,  (상동)", "phone": "061-282-7365", "homepage": null, "totalDoctors": 4, "lat": 34.8102773, "lng": 126.4237367, "kidsCare": false, "erCare": false}, {"key": "JDQ4MTYyMiM4MSMkMSMkNCMkOTkkMzgxMzUxIzIxIyQxIyQ1IyQxMyQyNjEwMDIjNDEjJDEjJDQjJDgz", "name": "365병원", "kind": "병원", "sido": "경남", "sigungu": "창원마산회원구", "address": "경상남도 창원시 마산회원구 3·15대로 686, (석전동)", "phone": "055-248-0365", "homepage": "www.masan365.co.kr/", "totalDoctors": 10, "lat": 35.2336646, "lng": 128.5794429, "kidsCare": false, "erCare": false}, {"key": "JDQ4MTYyMiM2MSMkMSMkMiMkNjIkMzgxMzUxIzExIyQyIyQzIyQwMCQyNjEyMjIjNDEjJDEjJDQjJDgz", "name": "365아홉가지약속치과병원", "kind": "치과병원", "sido": "충남", "sigungu": "아산시", "address": "충청남도 아산시 탕정면 한들물빛6로 46, 6층", "phone": "041-542-2879", "homepage": null, "totalDoctors": 4, "lat": 36.7885479, "lng": 127.0879278, "kidsCare": false, "erCare": false}, {"key": "JDQ4MTg4MSM1MSMkMSMkMCMkOTkkMzgxMzUxIzMxIyQxIyQ3IyQ5OSQ0NjE0ODEjNjEjJDEjJDAjJDgz", "name": "365엠씨(mc)병원", "kind": "병원", "sido": "서울", "sigungu": "서초구", "address": "서울특별시 서초구 서초중앙로 126, 서울365mc병원 지하1층, 2~13층 (서초동)", "phone": "02-3474-3653", "homepage": "http://www.365mc.co.kr", "totalDoctors": 15, "lat": 37.4929843, "lng": 127.0141365, "kidsCare": false, "erCare": false}, {"key": "JDQ4MTAxMiM1MSMkMSMkMCMkOTkkMzgxMzUxIzIxIyQxIyQ1IyQxMyQyNjE4MzIjODEjJDEjJDIjJDgz", "name": "365엠씨병원", "kind": "병원", "sido": "부산", "sigungu": "부산진구", "address": "부산광역시 부산진구 서면로 74, (부전동, 아이온시티빌딩)", "phone": "051-809-3655", "homepage": null, "totalDoctors": 9, "lat": 35.1570677, "lng": 129.0581339, "kidsCare": false, "erCare": false}, {"key": "JDQ4MTYyMiM4MSMkMSMkNCMkNjIkMzgxMzUxIzExIyQxIyQzIyQ2MiQzNjE4MzIjNTEjJDEjJDIjJDgz", "name": "365우리들치과병원", "kind": "치과병원", "sido": "경남", "sigungu": "진주시", "address": "경상남도 진주시 대신로 211, 4-5층 (상대동)", "phone": "055-758-2804", "homepage": null, "totalDoctors": 6, "lat": 35.179216, "lng": 128.117119, "kidsCare": false, "erCare": false}, {"key": "JDU4MTI3MSM1MSMkMSMkNCMkOTkkMzgxMzUxIzExIyQxIyQzIyQ4OSQzNjEwMDIjNjEjJDEjJDgjJDgz", "name": "365키즈병원", "kind": "병원", "sido": "경기", "sigungu": "의왕시", "address": "경기도 의왕시 평의길 34, 5층 601-602호 (내손동)", "phone": "031-423-5575", "homepage": null, "totalDoctors": 4, "lat": 37.3904482, "lng": 126.9771734, "kidsCare": true, "erCare": false}, {"key": "JDQ4MTg4MSM1MSMkMSMkMCMkOTkkMzgxMzUxIzQxIyQxIyQ3IyQ5OSQzNjE0ODEjODEjJDEjJDIjJDgz", "name": "9988병원", "kind": "병원", "sido": "서울", "sigungu": "성동구", "address": "서울특별시 성동구 왕십리로 269, (행당동)", "phone": "02-2297-9988", "homepage": null, "totalDoctors": 7, "lat": 37.5585817, "lng": 127.0375193, "kidsCare": false, "erCare": false}, {"key": "JDQ4MTYyMiM2MSMkMSMkMiMkOTkkMzgxMzUxIzIxIyQxIyQ1IyQ4OSQzNjEwMDIjNDEjJDEjJDQjJDgz", "name": "9988병원", "kind": "병원", "sido": "충남", "sigungu": "당진시", "address": "충청남도 당진시 운학길 3-0, (채운동)", "phone": "041-358-9988", "homepage": null, "totalDoctors": 8, "lat": 36.8925662, "lng": 126.6248501, "kidsCare": false, "erCare": false}, {"key": "JDQ4MTYyMiM4MSMkMSMkNCMkOTkkNTgxMzUxIzIxIyQyIyQ1IyQwMCQzNjE4MzIjODEjJDEjJDYjJDgz", "name": "BB요양병원", "kind": "요양병원", "sido": "울산", "sigungu": "울산북구", "address": "울산광역시 북구 염포로 353, (양정동)", "phone": "052-716-1020", "homepage": null, "totalDoctors": 5, "lat": 35.5593556, "lng": 129.3780269, "kidsCare": false, "erCare": false}, {"key": "JDQ4MTAxMiM1MSMkMSMkMCMkOTkkNTgxOTYxIzExIyQxIyQzIyQ3OSQzNjE4MzIjNjEjJDEjJDQjJDgz", "name": "BH병원", "kind": "정신병원", "sido": "부산", "sigungu": "부산남구", "address": "부산광역시 남구 수영로 165, (대연동)", "phone": "051-633-6665", "homepage": null, "totalDoctors": 2, "lat": 35.1348845, "lng": 129.084618, "kidsCare": false, "erCare": false}, {"key": "JDQ4MTYyMiM3MSMkMSMkMCMkODkkMzgxMzUxIzExIyQxIyQzIyQwMyQyNjEwMDIjNDEjJDEjJDgjJDgz", "name": "KS병원", "kind": "종합병원", "sido": "전남", "sigungu": "광주광산구", "address": "전남광주통합특별시 광산구 왕버들로 220,  (수완동)", "phone": "062-975-9000", "homepage": "http://www.kshosp.com", "totalDoctors": 43, "lat": 35.1979238, "lng": 126.8331484, "kidsCare": true, "erCare": true}, {"key": "JDQ4MTYyMiM4MSMkMSMkMCMkOTkkMzgxMzUxIzIxIyQxIyQxIyQ3MiQ0NjEwMDIjNjEjJDEjJDgjJDgz", "name": "MS재건병원", "kind": "병원", "sido": "대구", "sigungu": "대구중구", "address": "대구광역시 중구 동덕로 194, (동인동1가, 동화빌딩)", "phone": "053-653-0119", "homepage": "http://www.msrhospital.kr", "totalDoctors": 13, "lat": 35.8718541, "lng": 128.6048872, "kidsCare": false, "erCare": false}, {"key": "JDQ4MTYyMiM4MSMkMSMkMCMkOTkkNTgxOTYxIzExIyQxIyQzIyQ4OSQzNjE0ODEjNTEjJDEjJDIjJDgz", "name": "M병원", "kind": "정신병원", "sido": "대구", "sigungu": "대구북구", "address": "대구광역시 북구 팔달로 147, (노원동3가)", "phone": "053-359-3771", "homepage": null, "totalDoctors": 6, "lat": 35.8894328, "lng": 128.5661976, "kidsCare": true, "erCare": false}, {"key": "JDQ4MTYyMiM2MSMkMSMkMiMkOTkkMzgxMzUxIzIxIyQxIyQxIyQxMyQyNjEyMjIjNzEjJDEjJDgjJDgz", "name": "SG삼성조은병원", "kind": "병원", "sido": "충남", "sigungu": "천안서북구", "address": "충청남도 천안시 서북구 불당25로 200, 2,3,4,5층 (불당동)", "phone": "041-571-7581", "homepage": null, "totalDoctors": 11, "lat": 36.8188843, "lng": 127.109134, "kidsCare": false, "erCare": false}, {"key": "JDQ4MTYyMiM1MSMkMSMkMCMkOTkkNTgxMzUxIzUxIyQyIyQxIyQwMCQzNjEwMDIjODEjJDEjJDYjJDgz", "name": "SKJ상경원요양병원", "kind": "요양병원", "sido": "경기", "sigungu": "여주시", "address": "경기도 여주시 강천면 걸촌동길 33-4, (강천면)", "phone": "1600-5075", "homepage": null, "totalDoctors": 1, "lat": 37.2890394, "lng": 127.702157, "kidsCare": false, "erCare": false}, {"key": "JDQ4MTYyMiM4MSMkMSMkNCMkOTkkMzgxMzUxIzIxIyQxIyQ1IyQwMyQzNjEyMjIjNTEjJDEjJDYjJDgz", "name": "the큰병원", "kind": "병원", "sido": "경남", "sigungu": "창원의창구", "address": "경상남도 창원시 의창구 우곡로217번길 10, (명서동, 지하1,2층지상2,3,4,5,6,7,8층)", "phone": "055-270-0800", "homepage": "http://www.grandhospital.com", "totalDoctors": 6, "lat": 35.2396798, "lng": 128.6487951, "kidsCare": false, "erCare": false}, {"key": "JDQ4MTYyMiM1MSMkMSMkMCMkOTkkMzgxMzUxIzUxIyQxIyQxIyQwMyQzNjE4MzIjODEjJDEjJDIjJDgz", "name": "W(더블유)여성병원", "kind": "병원", "sido": "인천", "sigungu": "인천미추홀구", "address": "인천광역시 미추홀구 인주대로 400, 제일여성병원 2층 일부, 3-5층, 8층 (주안동)", "phone": "032-451-0000", "homepage": null, "totalDoctors": 17, "lat": 37.4509653, "lng": 126.6811652, "kidsCare": true, "erCare": false}, {"key": "JDQ4MTYyMiM4MSMkMSMkOCMkOTkkMzgxMzUxIzExIyQyIyQzIyQwMCQzNjE0ODEjNjEjJDEjJDQjJDgz", "name": "WE병원", "kind": "병원", "sido": "제주", "sigungu": "서귀포시", "address": "제주특별자치도 서귀포시 1100로 453-95, (회수동)", "phone": "064-730-1421", "homepage": null, "totalDoctors": 1, "lat": 33.2860122, "lng": 126.4441678, "kidsCare": false, "erCare": false}, {"key": "JDQ4MTYyMiM4MSMkMSMkMCMkOTkkMzgxMzUxIzIxIyQxIyQ5IyQwMyQzNjEwMDIjODEjJDEjJDIjJDgz", "name": "W여성병원", "kind": "병원", "sido": "대구", "sigungu": "대구수성구", "address": "대구광역시 수성구 화랑로 58, (만촌동)", "phone": "053-757-2000", "homepage": null, "totalDoctors": 9, "lat": 35.8708049, "lng": 128.6339412, "kidsCare": true, "erCare": false}, {"key": "JDQ4MTAxMiM1MSMkMSMkMCMkOTkkNTgxMzUxIzIxIyQxIyQ5IyQ3OSQyNjEwMDIjNjEjJDEjJDgjJDgz", "name": "가나안요양병원", "kind": "요양병원", "sido": "부산", "sigungu": "부산수영구", "address": "부산광역시 수영구 수영로 563-1, 지하1~10층 (광안동)", "phone": "051-752-8000", "homepage": null, "totalDoctors": 5, "lat": 35.1561769, "lng": 129.1124247, "kidsCare": false, "erCare": false}, {"key": "JDQ4MTYyMiM3MSMkMSMkMCMkOTkkMzgxMzUxIzMxIyQxIyQzIyQ3MiQyNjEwMDIjNjEjJDEjJDgjJDgz", "name": "가람병원", "kind": "병원", "sido": "전남", "sigungu": "광주북구", "address": "전남광주통합특별시 북구 북문대로 14, 지하1,1~5층 (운암동)", "phone": "062-515-1500", "homepage": null, "totalDoctors": 2, "lat": 35.1740367, "lng": 126.883839, "kidsCare": false, "erCare": false}, {"key": "JDQ4MTYyMiM2MSMkMSMkNiMkMTMkMzgxMTkxIzExIyQxIyQzIyQ3MiQzNjEwMDIjNjEjJDEjJDgjJDgz", "name": "가람한방병원", "kind": "한방병원", "sido": "전북", "sigungu": "전주덕진구", "address": "전북특별자치도 전주시 덕진구 송천중앙로 60-0,  (송천동1가)", "phone": "063-274-8600", "homepage": null, "totalDoctors": 4, "lat": 35.8524433, "lng": 127.1202661, "kidsCare": false, "erCare": false}, {"key": "JDQ4MTYyMiM2MSMkMSMkMiMkOTkkNTgxMzUxIzExIyQxIyQ3IyQxMyQzNjEwMDIjODEjJDEjJDYjJDgz", "name": "가야요양병원", "kind": "요양병원", "sido": "충남", "sigungu": "천안동남구", "address": "충청남도 천안시 동남구 영성로 7, (영성동, 가야요양병원)", "phone": "041-558-1000", "homepage": null, "totalDoctors": 5, "lat": 36.7989313, "lng": 127.1505959, "kidsCare": false, "erCare": false}, {"key": "JDQ4MTYyMiM4MSMkMSMkMCMkOTkkNTgxMzUxIzExIyQxIyQ3IyQ4OSQ0NjE0ODEjNjEjJDEjJDgjJDgz", "name": "가야이요양병원", "kind": "요양병원", "sido": "경북", "sigungu": "성주군", "address": "경상북도 성주군 성주읍 주산로 183, (성주읍)", "phone": "054-933-7002", "homepage": null, "totalDoctors": 4, "lat": 35.9330786, "lng": 128.3040306, "kidsCare": true, "erCare": false}, {"key": "JDQ4MTg4MSM1MSMkMSMkMCMkNjIkMzgxMzUxIzIxIyQxIyQxIyQ4OSQzNjE0ODEjODEjJDEjJDIjJDgz", "name": "가야치과병원", "kind": "치과병원", "sido": "서울", "sigungu": "서초구", "address": "서울특별시 서초구 방배로 177, 4~6층 (방배동)", "phone": "02-599-2472", "homepage": null, "totalDoctors": 4, "lat": 37.4892973, "lng": 126.9922868, "kidsCare": false, "erCare": false}, {"key": "JDQ4MTYyMiM1MSMkMSMkMCMkOTkkNTgxMzUxIzMxIyQxIyQ3IyQ4OSQzNjEyMjIjNDEjJDEjJDQjJDgz", "name": "가온요양병원", "kind": "요양병원", "sido": "인천", "sigungu": "인천남동구", "address": "인천광역시 남동구 남동대로 797, 가온 요양병원 (구월동)", "phone": "032-212-2001", "homepage": "www.gaonhospital.co.kr", "totalDoctors": 7, "lat": 37.453577, "lng": 126.7078003, "kidsCare": true, "erCare": false}, {"key": "JDQ4MTYyMiM2MSMkMSMkMiMkNjIkMzgxMzUxIzExIyQxIyQzIyQ5OSQzNjE4MzIjNTEjJDEjJDYjJDgz", "name": "가온치과병원", "kind": "치과병원", "sido": "충남", "sigungu": "천안서북구", "address": "충청남도 천안시 서북구 동서대로 129, (성정동)", "phone": "041-552-0005", "homepage": "www.gaondent.com", "totalDoctors": 7, "lat": 36.8262114, "lng": 127.1378027, "kidsCare": false, "erCare": false}, {"key": "JDQ4MTYyMiM1MSMkMSMkMCMkMTMkMzgxMTkxIzIxIyQxIyQ5IyQ2MiQzNjE4MzIjNjEjJDEjJDgjJDgz", "name": "가온한방병원", "kind": "한방병원", "sido": "경기", "sigungu": "평택시", "address": "경기도 평택시 고덕국제7로 117, 5층 (고덕동)", "phone": "031-665-7654", "homepage": "http://gaonhospital.com/", "totalDoctors": 3, "lat": 37.0351969, "lng": 127.0297614, "kidsCare": false, "erCare": false}, {"key": "JDQ4MTYyMiM1MSMkMSMkMCMkOTkkNTgxMzUxIzExIyQxIyQzIyQ3MiQzNjEwMDIjNTEjJDEjJDIjJDgz", "name": "가은병원", "kind": "요양병원", "sido": "경기", "sigungu": "부천소사구", "address": "경기도 부천시 소사구 마니로24번길 43-17, 가은병원(본관, 항암치료센터) (송내동)", "phone": "032-667-0114", "homepage": "http://www.gaeunhospital.com/", "totalDoctors": 12, "lat": 37.4774545, "lng": 126.768885, "kidsCare": false, "erCare": false}, {"key": "JDQ4MTYyMiM4MSMkMSMkMCMkNjIkMzgxMzUxIzExIyQxIyQzIyQ4MiQ0NjE0ODEjNDEjJDEjJDgjJDgz", "name": "가이드치과병원", "kind": "치과병원", "sido": "경북", "sigungu": "구미시", "address": "경상북도 구미시 인동36길 17, 3층 (구평동,보람빌딩)", "phone": "054-471-2885", "homepage": null, "totalDoctors": 2, "lat": 36.0930247, "lng": 128.4323588, "kidsCare": false, "erCare": false}, {"key": "JDQ4MTg4MSM1MSMkMSMkMCMkOTkkMzgxMzUxIzQxIyQxIyQ3IyQ4OSQ0NjEwMDIjNDEjJDEjJDgjJDgz", "name": "가자연세병원", "kind": "병원", "sido": "서울", "sigungu": "서대문구", "address": "서울특별시 서대문구 수색로 18, 2~5층 (남가좌동, 영보웨딩부페)", "phone": "02-304-5660", "homepage": null, "totalDoctors": 8, "lat": 37.5689576, "lng": 126.9165989, "kidsCare": false, "erCare": false}, {"key": "JDQ4MTYyMiM1MSMkMSMkMCMkOTkkMzgxOTYxIzExIyQxIyQzIyQ4MiQ0NjE0ODEjNjEjJDEjJDgjJDgz", "name": "가자연세병원", "kind": "병원", "sido": "경기", "sigungu": "김포시", "address": "경기도 김포시 돌문로 43, 2층 (사우동)", "phone": "031-998-8009", "homepage": null, "totalDoctors": 0, "lat": 37.6188812, "lng": 126.717813, "kidsCare": false, "erCare": false}, {"key": "JDQ4MTYyMiM3MSMkMSMkMCMkOTkkMzgxMzUxIzIxIyQxIyQ5IyQ2MiQzNjE4MzIjNDEjJDEjJDgjJDgz", "name": "가제트병원", "kind": "병원", "sido": "전남", "sigungu": "광주남구", "address": "전남광주통합특별시 남구 대남대로127번길 5, 가제트병원 (방림동)", "phone": "062-710-9111", "homepage": null, "totalDoctors": 3, "lat": 35.1333715, "lng": 126.9113533, "kidsCare": false, "erCare": false}, {"key": "JDQ4MTAxMiM1MSMkMSMkMCMkOTkkNTgxMzUxIzIxIyQxIyQ1IyQ4OSQzNjEyMjIjODEjJDEjJDIjJDgz", "name": "가족사랑 요양병원", "kind": "요양병원", "sido": "부산", "sigungu": "부산진구", "address": "부산광역시 부산진구 새싹로 286, 4~9층 (초읍동)", "phone": "051-806-1190", "homepage": null, "totalDoctors": 6, "lat": 35.1816671, "lng": 129.0473059, "kidsCare": false, "erCare": false}, {"key": "JDQ4MTYyMiM4MSMkMSMkMCMkOTkkNTgxMzUxIzIxIyQxIyQ1IyQ5OSQyNjEyMjIjNzEjJDEjJDgjJDgz", "name": "가창파티마요양병원", "kind": "요양병원", "sido": "대구", "sigungu": "대구달성군", "address": "대구광역시 달성군 가창면 가창로85길 24-6, (가창면)", "phone": "053-295-7000", "homepage": null, "totalDoctors": 5, "lat": 35.7499693, "lng": 128.6497959, "kidsCare": false, "erCare": false}, {"key": "JDQ4MTYyMiM1MSMkMSMkMCMkOTkkMzgxOTYxIzExIyQxIyQzIyQ5OSQyNjE4MzIjNjEjJDEjJDgjJDgz", "name": "가천대부속 동인천길병원", "kind": "병원", "sido": "인천", "sigungu": "인천중구", "address": "인천광역시 중구 큰우물로 21, (용동, 지하1층, 1층, 3~5층, 8층)", "phone": "032-770-1300", "homepage": null, "totalDoctors": 1, "lat": 37.4737923, "lng": 126.631332, "kidsCare": false, "erCare": false}, {"key": "JDQ4MTYyMiM1MSMkMSMkMCMkMTMkMzgxMTkxIzExIyQxIyQ3IyQ5OSQ0NjE0ODEjNDEjJDEjJDgjJDgz", "name": "가천대학교부속 길한방병원", "kind": "한방병원", "sido": "인천", "sigungu": "인천중구", "address": "인천광역시 중구 큰우물로 21, (용동, 가천대학교부속 길한방병원 본관 2층, 6층,7층, 9층,10층 )", "phone": "032-770-1300", "homepage": null, "totalDoctors": 13, "lat": 37.4736967, "lng": 126.6313258, "kidsCare": false, "erCare": false}, {"key": "JDQ4MTYyMiM1MSMkMSMkMCMkODkkMzgxMzUxIzExIyQxIyQ3IyQ4OSQ0NjE0ODEjNjEjJDEjJDgjJDgz", "name": "가톨릭관동대학교 국제성모병원", "kind": "종합병원", "sido": "인천", "sigungu": "인천서구", "address": "인천광역시 서구 심곡로100번길 25-0, 인천국제성모병원", "phone": "032-1600-8291", "homepage": "www.ish.or.kr", "totalDoctors": 209, "lat": 37.5423431, "lng": 126.6835685, "kidsCare": true, "erCare": true}, {"key": "JDQ4MTYyMiM1MSMkMSMkMCMkODkkMzgxMzUxIzExIyQxIyQzIyQ3OSQzNjEwMDIjODEjJDEjJDIjJDgz", "name": "가톨릭대학교 성빈센트병원", "kind": "상급종합", "sido": "경기", "sigungu": "수원팔달구", "address": "경기도 수원시 팔달구 중부대로 93, (지동)", "phone": "031-1577-8588", "homepage": "http://www.cmcvincent.or.kr/skip.html", "totalDoctors": 370, "lat": 37.2779855, "lng": 127.0274271, "kidsCare": true, "erCare": true}, {"key": "JDQ4MTg4MSM1MSMkMSMkMCMkODkkMzgxMzUxIzExIyQxIyQzIyQ3OSQyNjEyMjIjODEjJDEjJDIjJDgz", "name": "가톨릭대학교 여의도성모병원", "kind": "종합병원", "sido": "서울", "sigungu": "영등포구", "address": "서울특별시 영등포구 63로 10, 여의도성모병원 (여의도동)", "phone": "1661-7575", "homepage": "http://www.cmcujb.or.kr/", "totalDoctors": 226, "lat": 37.5183253, "lng": 126.9367517, "kidsCare": true, "erCare": true}, {"key": "JDQ4MTg4MSM1MSMkMSMkMCMkODkkMzgxMzUxIzExIyQxIyQzIyQ4OSQzNjEwMDIjNDEjJDEjJDQjJDgz", "name": "가톨릭대학교 은평성모병원", "kind": "종합병원", "sido": "서울", "sigungu": "은평구", "address": "서울특별시 은평구 통일로 1021, (진관동)", "phone": "02-1811-7755", "homepage": "http://www.cmcep.or.kr/", "totalDoctors": 300, "lat": 37.6334945, "lng": 126.9161912, "kidsCare": true, "erCare": true}, {"key": "JDQ4MTYyMiM1MSMkMSMkMCMkODkkMzgxMzUxIzExIyQxIyQzIyQ5OSQyNjEwMDIjNDEjJDEjJDQjJDgz", "name": "가톨릭대학교부천성모병원", "kind": "종합병원", "sido": "경기", "sigungu": "부천원미구", "address": "경기도 부천시 원미구 소사로 327, 가톨릭대학교 부천성모병원 (소사동)", "phone": "032-1577-0675", "homepage": "http://www.cmcbucheon.or.kr", "totalDoctors": 238, "lat": 37.4871165, "lng": 126.7924166, "kidsCare": true, "erCare": true}, {"key": "JDQ4MTYyMiM1MSMkMSMkMCMkODkkMzgxMzUxIzExIyQxIyQzIyQ5OSQ0NjEwMDIjNjEjJDEjJDQjJDgz", "name": "가톨릭대학교의정부성모병원", "kind": "종합병원", "sido": "경기", "sigungu": "의정부시", "address": "경기도 의정부시 천보로 271, 의정부성모병원 (금오동)", "phone": "1661-7500", "homepage": "http://www.cmcujb.or.kr/", "totalDoctors": 266, "lat": 37.7587045, "lng": 127.0777625, "kidsCare": true, "erCare": true}, {"key": "JDQ4MTYyMiM1MSMkMSMkMCMkODkkMzgxMzUxIzExIyQxIyQzIyQ3OSQyNjE4MzIjNDEjJDEjJDgjJDgz", "name": "가톨릭대학교인천성모병원", "kind": "상급종합", "sido": "인천", "sigungu": "인천부평구", "address": "인천광역시 부평구 동수로 56, (부평동)", "phone": "032-1544-9004", "homepage": "http://www.cmcism.or.kr/", "totalDoctors": 331, "lat": 37.4848309, "lng": 126.7248987, "kidsCare": true, "erCare": true}, {"key": "JDQ4MTYyMiM2MSMkMSMkMiMkOTkkMzgxMzUxIzExIyQxIyQ3IyQxMyQyNjEyMjIjNDEjJDEjJDgjJDgz", "name": "가톨릭병원", "kind": "병원", "sido": "대전", "sigungu": "대전서구", "address": "대전광역시 서구 도산로 351, (용문동)", "phone": "042-537-0222", "homepage": "http://www.dcoh.co.kr", "totalDoctors": 5, "lat": 36.3364138, "lng": 127.390352, "kidsCare": false, "erCare": false}, {"key": "JDQ4MTYyMiM1MSMkMSMkMCMkOTkkNTgxMzUxIzMxIyQxIyQzIyQ4OSQyNjE0ODEjNjEjJDEjJDAjJDgz", "name": "가평산속요양병원", "kind": "요양병원", "sido": "경기", "sigungu": "가평군", "address": "경기도 가평군 상면 대보간선로 889, (상면)", "phone": "031-584-8900", "homepage": "www.gpnature.com/", "totalDoctors": 2, "lat": 37.7889464, "lng": 127.40443139999999, "kidsCare": false, "erCare": false}, {"key": "JDQ4MTYyMiM1MSMkMSMkMCMkOTkkNTgxMzUxIzQxIyQxIyQ3IyQ5MiQyNjEyMjIjNzEjJDEjJDgjJDgz", "name": "가평푸른숲요양병원", "kind": "요양병원", "sido": "경기", "sigungu": "가평군", "address": "경기도 가평군 상면 물골길 262-23, (상면)", "phone": "1661-9099", "homepage": null, "totalDoctors": 3, "lat": 37.8409105, "lng": 127.3042465, "kidsCare": false, "erCare": false}, {"key": "JDQ4MTg4MSM1MSMkMSMkMCMkMTMkMzgxMTkxIzIxIyQxIyQxIyQ4OSQyNjE4MzIjNTEjJDEjJDYjJDgz", "name": "가화한방병원", "kind": "한방병원", "sido": "서울", "sigungu": "도봉구", "address": "서울특별시 도봉구 도당로 51, (방학동)", "phone": "02-955-1772", "homepage": null, "totalDoctors": 7, "lat": 37.66281, "lng": 127.0343076, "kidsCare": false, "erCare": false}, {"key": "JDQ4MTYyMiM1MSMkMSMkMCMkMTMkMzgxMTkxIzIxIyQxIyQxIyQ3MiQ0NjEwMDIjNzEjJDEjJDgjJDgz", "name": "간석한방병원", "kind": "한방병원", "sido": "인천", "sigungu": "인천남동구", "address": "인천광역시 남동구 백범로 403, (간석동)", "phone": "032-554-7582", "homepage": null, "totalDoctors": 2, "lat": 37.4670395, "lng": 126.706483, "kidsCare": false, "erCare": false}, {"key": "JDQ4MTYyMiM4MSMkMSMkMCMkOTkkNTgxMzUxIzIxIyQxIyQ1IyQ4OSQyNjEyMjIjNDEjJDEjJDQjJDgz", "name": "감꽃요양병원", "kind": "요양병원", "sido": "경북", "sigungu": "청도군", "address": "경상북도 청도군 각북면 헐티로 1229, (각북면)", "phone": "054-371-7770", "homepage": null, "totalDoctors": 3, "lat": 35.7143845, "lng": 128.5663118, "kidsCare": false, "erCare": false}, {"key": "JDQ4MTYyMiM2MSMkMSMkMiMkOTkkNTgxMzUxIzIxIyQxIyQxIyQ5MiQyNjEwMDIjODEjJDEjJDIjJDgz", "name": "감인의료재단 감인요양병원", "kind": "요양병원", "sido": "충남", "sigungu": "당진시", "address": "충청남도 당진시 남부로 140, (채운동)", "phone": "041-351-5000", "homepage": null, "totalDoctors": 7, "lat": 36.8846218, "lng": 126.6320046, "kidsCare": false, "erCare": false}, {"key": "JDQ4MTYyMiM1MSMkMSMkMCMkOTkkNTgxMzUxIzMxIyQxIyQzIyQ3MiQzNjE0ODEjNjEjJDEjJDgjJDgz", "name": "감인의료재단 신갈백세요양병원", "kind": "요양병원", "sido": "경기", "sigungu": "용인기흥구", "address": "경기도 용인시 기흥구 신정로159번길 60, 신갈백세암요양병원 (신갈동)", "phone": "031-693-6900", "homepage": null, "totalDoctors": 0, "lat": 37.2868405, "lng": 127.0971813, "kidsCare": false, "erCare": false}, {"key": "JDQ4MTYyMiM1MSMkMSMkMCMkOTkkNTgxMzUxIzMxIyQxIyQ3IyQ3OSQyNjE0ODEjNTEjJDEjJDYjJDgz", "name": "감인의료재단 청라백세요양병원", "kind": "요양병원", "sido": "인천", "sigungu": "인천서구", "address": "인천광역시 서구 로봇랜드로249번길 14, 청라백세요양병원 (청라동)", "phone": "032-524-8800", "homepage": null, "totalDoctors": 5, "lat": 37.5290986, "lng": 126.6100211, "kidsCare": false, "erCare": false}, {"key": "JDQ4MTYyMiM2MSMkMSMkMiMkOTkkNTgxMzUxIzIxIyQxIyQxIyQ4OSQyNjE0ODEjNjEjJDEjJDgjJDgz", "name": "강경효사랑요양병원", "kind": "요양병원", "sido": "충남", "sigungu": "논산시", "address": "충청남도 논산시 강경읍 여강로 1294, (강경읍)", "phone": "041-745-1500", "homepage": null, "totalDoctors": 0, "lat": 36.1507911, "lng": 127.0128889, "kidsCare": false, "erCare": false}, {"key": "JDQ4MTg4MSM1MSMkMSMkMCMkOTkkMzgxMzUxIzExIyQxIyQ3IyQ3MiQyNjE0ODEjODEjJDEjJDYjJDgz", "name": "강남고려병원", "kind": "병원", "sido": "서울", "sigungu": "관악구", "address": "서울특별시 관악구 관악로 242, (봉천동)", "phone": "1661-8267", "homepage": null, "totalDoctors": 3, "lat": 37.4856349, "lng": 126.9567943, "kidsCare": false, "erCare": false}, {"key": "JDQ4MTg4MSM1MSMkMSMkMCMkOTkkNTgxMzUxIzIxIyQxIyQ1IyQ4OSQ0NjE0ODEjNDEjJDEjJDgjJDgz", "name": "강남구립행복요양병원", "kind": "요양병원", "sido": "서울", "sigungu": "강남구", "address": "서울특별시 강남구 헌릉로590길 60, (세곡동, 강남구립 행복요양병원)", "phone": "02-6053-2114", "homepage": "http://www.gangnamguhospital.kr/", "totalDoctors": 8, "lat": 37.4611634, "lng": 127.1033786, "kidsCare": false, "erCare": false}, {"key": "JDQ4MTg4MSM1MSMkMSMkMCMkODkkMzgxMzUxIzExIyQxIyQ3IyQ2MiQyNjE0ODEjNzEjJDEjJDgjJDgz", "name": "강남베드로병원", "kind": "종합병원", "sido": "서울", "sigungu": "강남구", "address": "서울특별시 강남구 남부순환로 2649, 베드로병원 (도곡동)", "phone": "1544-7522", "homepage": null, "totalDoctors": 36, "lat": 37.4856196, "lng": 127.0396045, "kidsCare": false, "erCare": true}, {"key": "JDQ4MTYyMiM1MSMkMSMkMCMkODkkMzgxMzUxIzExIyQxIyQzIyQ5MiQyNjEwMDIjNjEjJDEjJDgjJDgz", "name": "강남병원", "kind": "종합병원", "sido": "경기", "sigungu": "용인기흥구", "address": "경기도 용인시 기흥구 중부대로 411, 강남병원 (신갈동)", "phone": "031-300-0114", "homepage": "http://www.knmc.or.kr", "totalDoctors": 47, "lat": 37.2737515, "lng": 127.1115072, "kidsCare": true, "erCare": true}, {"key": "JDQ4MTYyMiM3MSMkMSMkMCMkOTkkMzgxMzUxIzIxIyQxIyQxIyQ4MiQyNjE4MzIjNDEjJDEjJDgjJDgz", "name": "강남병원", "kind": "병원", "sido": "전남", "sigungu": "광양시", "address": "전남광주통합특별시 광양시 중마중앙로 17,  (중동)", "phone": "061-818-7575", "homepage": "www.e-gangnam.net/", "totalDoctors": 6, "lat": 34.9317483, "lng": 127.697711, "kidsCare": false, "erCare": false}, {"key": "JDQ4MTYyMiM4MSMkMSMkMCMkOTkkMzgxOTYxIzExIyQxIyQzIyQ4OSQzNjEwMDIjNzEjJDEjJDgjJDgz", "name": "강남병원", "kind": "병원", "sido": "경북", "sigungu": "구미시", "address": "경상북도 구미시 금오시장로2길 21, (원평동)", "phone": "054-458-9300", "homepage": "http://www.knhospital.co.kr/", "totalDoctors": 9, "lat": 36.1244456, "lng": 128.3422885, "kidsCare": false, "erCare": false}, {"key": "JDQ4MTYyMiM4MSMkMSMkNCMkOTkkMzgxMzUxIzMxIyQxIyQ3IyQ4OSQ0NjE0ODEjODEjJDEjJDIjJDgz", "name": "강남병원", "kind": "병원", "sido": "경남", "sigungu": "진주시", "address": "경상남도 진주시 동진로 111, 한보프라자 1층(101호,108호),7-9층 (상대동)", "phone": "055-743-0008", "homepage": null, "totalDoctors": 1, "lat": 35.1796791, "lng": 128.1034774, "kidsCare": false, "erCare": false}, {"key": "JDQ4MTYyMiM2MSMkMSMkMiMkMTMkMzgxMTkxIzExIyQxIyQzIyQxMyQyNjE4MzIjNjEjJDEjJDQjJDgz", "name": "강남세종한방병원", "kind": "한방병원", "sido": "세종시", "sigungu": "세종시", "address": "세종특별자치시 한누리대로 2275, 알파메디컬센터 4~6층 (대평동)", "phone": "044-863-7775", "homepage": null, "totalDoctors": 6, "lat": 36.4715494, "lng": 127.2763919, "kidsCare": false, "erCare": false}, {"key": "JDQ4MTg4MSM1MSMkMSMkMCMkOTkkNTgxMzUxIzIxIyQyIyQxIyQwMCQzNjEyMjIjNTEjJDEjJDYjJDgz", "name": "강남센트럴요양병원", "kind": "요양병원", "sido": "서울", "sigungu": "송파구", "address": "서울특별시 송파구 송이로 156, 태정타워 (가락동)", "phone": "02-3411-2360", "homepage": null, "totalDoctors": 5, "lat": 37.4930599, "lng": 127.1246503, "kidsCare": false, "erCare": false}, {"key": "JDQ4MTg4MSM1MSMkMSMkMCMkOTkkMzgxMzUxIzMxIyQxIyQzIyQ4MiQ0NjE0ODEjNzEjJDEjJDgjJDgz", "name": "강남수병원", "kind": "병원", "sido": "서울", "sigungu": "송파구", "address": "서울특별시 송파구 삼전로2길 11, (삼전동)", "phone": "02-421-7100", "homepage": null, "totalDoctors": 3, "lat": 37.5013402, "lng": 127.0861578, "kidsCare": false, "erCare": false}, {"key": "JDQ4MTg4MSM1MSMkMSMkMCMkOTkkNTgxMzUxIzIxIyQyIyQxIyQwMCQzNjE0ODEjNzEjJDEjJDgjJDgz", "name": "강남수요양병원", "kind": "요양병원", "sido": "서울", "sigungu": "관악구", "address": "서울특별시 관악구 신림로64길 11, 지1층,2~11층 (신림동, 성재빌딩)", "phone": "02-888-8866", "homepage": null, "totalDoctors": 7, "lat": 37.4851884, "lng": 126.9304624, "kidsCare": false, "erCare": false}, {"key": "JDQ4MTYyMiM1MSMkMSMkMCMkOTkkMzgxMzUxIzMxIyQxIyQ3IyQ4MiQzNjEwMDIjNjEjJDEjJDAjJDgz", "name": "강남여성병원", "kind": "병원", "sido": "경기", "sigungu": "수원팔달구", "address": "경기도 수원시 팔달구 중부대로 96, (인계동)", "phone": "031-222-7575", "homepage": "http://gangnamhospital.co.kr/", "totalDoctors": 8, "lat": 37.2767458, "lng": 127.0275151, "kidsCare": false, "erCare": false}, {"key": "JDQ4MTg4MSM1MSMkMSMkNCMkOTkkNTgxMzUxIzExIyQxIyQzIyQ3OSQzNjEwMDIjNjEjJDEjJDAjJDgz", "name": "강남요양병원", "kind": "요양병원", "sido": "서울", "sigungu": "서초구", "address": "서울특별시 서초구 서초중앙로 197, (반포동)", "phone": "02-832-0151", "homepage": null, "totalDoctors": 3, "lat": 37.4993952, "lng": 127.0120817, "kidsCare": false, "erCare": false}, {"key": "JDQ4MTYyMiM3MSMkMSMkMCMkOTkkNTgxMzUxIzExIyQxIyQ3IyQ2MiQzNjEyMjIjODEjJDEjJDIjJDgz", "name": "강남요양병원", "kind": "요양병원", "sido": "전남", "sigungu": "광주동구", "address": "전남광주통합특별시 동구 남문로 622, (소태동)", "phone": "062-601-9000", "homepage": null, "totalDoctors": 8, "lat": 35.1264293, "lng": 126.9316265, "kidsCare": false, "erCare": false}, {"key": "JDQ4MTYyMiM4MSMkMSMkMCMkOTkkNTgxMzUxIzIxIyQyIyQ1IyQwMCQzNjE0ODEjNDEjJDEjJDgjJDgz", "name": "강남요양병원", "kind": "요양병원", "sido": "대구", "sigungu": "대구동구", "address": "대구광역시 동구 동촌로 207, (방촌동, 강남병원)", "phone": "053-983-4300", "homepage": null, "totalDoctors": 5, "lat": 35.8830536, "lng": 128.6630412, "kidsCare": false, "erCare": false}, {"key": "JDQ4MTYyMiM4MSMkMSMkNCMkOTkkNTgxMzUxIzExIyQxIyQ3IyQxMyQyNjEyMjIjODEjJDEjJDYjJDgz", "name": "강남요양병원", "kind": "요양병원", "sido": "울산", "sigungu": "울산남구", "address": "울산광역시 남구 중앙로 187-1, (신정동)", "phone": "052-260-3525", "homepage": null, "totalDoctors": 2, "lat": 35.5377468, "lng": 129.3127437, "kidsCare": false, "erCare": false}, {"key": "JDQ4MTg4MSM1MSMkMSMkMCMkOTkkMzgxMzUxIzQxIyQxIyQ3IyQ5OSQyNjE4MzIjNDEjJDEjJDQjJDgz", "name": "강남유나이티드병원", "kind": "병원", "sido": "서울", "sigungu": "강남구", "address": "서울특별시 강남구 남부순환로 2609, 하늘빌딩, 7~12층 (도곡동) (도곡동)", "phone": "02-1644-0075", "homepage": "https://utdhospital.co.kr/", "totalDoctors": 6, "lat": 37.4849802, "lng": 127.0351301, "kidsCare": false, "erCare": false}, {"key": "JDQ4MTg4MSM1MSMkMSMkMCMkOTkkMzgxMzUxIzMxIyQxIyQ3IyQ4OSQyNjEyMjIjODEjJDEjJDIjJDgz", "name": "강남을지대학교병원", "kind": "병원", "sido": "서울", "sigungu": "강남구", "address": "서울특별시 강남구 도산대로 202, 강남을지병원 B2~9층 (논현동)", "phone": "1899-0001", "homepage": "http://gangnam.eulji.or.kr/", "totalDoctors": 1, "lat": 37.5194124, "lng": 127.0286438, "kidsCare": false, "erCare": false}, {"key": "JDQ4MTg4MSM1MSMkMSMkMCMkOTkkMzgxMzUxIzMxIyQxIyQ3IyQ2MiQyNjE4MzIjODEjJDEjJDIjJDgz", "name": "강남제이에스병원", "kind": "병원", "sido": "서울", "sigungu": "강남구", "address": "서울특별시 강남구 도곡로 122, 제이에스빌딩 (도곡동)", "phone": "02-533-3600", "homepage": null, "totalDoctors": 5, "lat": 37.4899185, "lng": 127.033745, "kidsCare": false, "erCare": false}, {"key": "JDQ4MTYyMiM1MSMkMSMkMCMkOTkkNTgxMzUxIzMxIyQxIyQ3IyQ5MiQyNjEyMjIjNDEjJDEjJDgjJDgz", "name": "강남제일요양병원", "kind": "요양병원", "sido": "경기", "sigungu": "광주시", "address": "경기도 광주시 오포읍 새말길 188, (신현동)", "phone": "031-711-0220", "homepage": null, "totalDoctors": 5, "lat": 37.3745378, "lng": 127.1633822, "kidsCare": false, "erCare": false}, {"key": "JDQ4MTYyMiM4MSMkMSMkMCMkODkkMzgxMzUxIzExIyQxIyQzIyQ3MiQ0NjEwMDIjODEjJDEjJDYjJDgz", "name": "강남종합병원", "kind": "종합병원", "sido": "대구", "sigungu": "대구동구", "address": "대구광역시 동구 동촌로 207, 강남병원 (방촌동)", "phone": "053-980-9000", "homepage": null, "totalDoctors": 24, "lat": 35.8827739, "lng": 128.6639117, "kidsCare": false, "erCare": true}, {"key": "JDQ4MTg4MSM1MSMkMSMkMCMkOTkkMzgxMzUxIzQxIyQyIyQ3IyQwMCQzNjEwMDIjNTEjJDEjJDYjJDgz", "name": "강남지인병원", "kind": "병원", "sido": "서울", "sigungu": "강남구", "address": "서울특별시 강남구 언주로 631, 강남지인병원 지하2층. 2~6층 (논현동)", "phone": "02-6985-4119", "homepage": null, "totalDoctors": 14, "lat": 37.5127891, "lng": 127.03505, "kidsCare": false, "erCare": false}, {"key": "JDQ4MTg4MSM1MSMkMSMkMCMkOTkkMzgxMzUxIzMxIyQxIyQzIyQ3MiQyNjEwMDIjNTEjJDEjJDIjJDgz", "name": "강남초이스병원", "kind": "병원", "sido": "서울", "sigungu": "강남구", "address": "서울특별시 강남구 테헤란로 337, 4~8층 (역삼동)", "phone": "02-539-2250", "homepage": "http://www.choicehospital.co.kr", "totalDoctors": 5, "lat": 37.5047776, "lng": 127.0484885, "kidsCare": false, "erCare": false}, {"key": "JDQ4MTg4MSM1MSMkMSMkMCMkMTMkMzgxMTkxIzIxIyQxIyQxIyQ3OSQ0NjEwMDIjNjEjJDEjJDQjJDgz", "name": "강남푸른숲한방병원", "kind": "한방병원", "sido": "서울", "sigungu": "송파구", "address": "서울특별시 송파구 삼전로 42, 지하1~6층 (삼전동)", "phone": "02-424-2340", "homepage": null, "totalDoctors": 3, "lat": 37.502627, "lng": 127.0870096, "kidsCare": false, "erCare": false}, {"key": "JDQ4MTYyMiM1MSMkMSMkNCMkMTMkMzgxMTkxIzExIyQxIyQzIyQ5OSQyNjEyMjIjODEjJDEjJDYjJDgz", "name": "강남한방병원", "kind": "한방병원", "sido": "강원", "sigungu": "원주시", "address": "강원특별자치도 원주시 양지로 80-0,  6층 (반곡동)", "phone": "033-734-5844", "homepage": "https://xn--vh3b2l1e71mxnjlrx.com/", "totalDoctors": 4, "lat": 37.3279898, "lng": 127.9861972, "kidsCare": false, "erCare": false}, {"key": "JDQ4MTYyMiM2MSMkMSMkMiMkMTMkMzgxMTkxIzExIyQxIyQzIyQ3MiQyNjEyMjIjODEjJDEjJDIjJDgz", "name": "강남한방병원", "kind": "한방병원", "sido": "대전", "sigungu": "대전중구", "address": "대전광역시 중구 태평로 83-0,  3층 (태평동,삼부스포렉스)", "phone": "042-719-7533", "homepage": null, "totalDoctors": 6, "lat": 36.3241132, "lng": 127.3937376, "kidsCare": false, "erCare": false}, {"key": "JDQ4MTg4MSM1MSMkMSMkNCMkOTkkNTgxMzUxIzExIyQxIyQzIyQ3OSQzNjE0ODEjNjEjJDEjJDgjJDgz", "name": "강남효요양병원", "kind": "요양병원", "sido": "서울", "sigungu": "관악구", "address": "서울특별시 관악구 남부순환로 1704, (봉천동)", "phone": "02-885-8080", "homepage": null, "totalDoctors": 6, "lat": 37.4830572, "lng": 126.9394042, "kidsCare": false, "erCare": false}, {"key": "JDQ4MTg4MSM1MSMkMSMkMCMkOTkkMzgxMzUxIzQxIyQxIyQ3IyQ4MiQzNjEyMjIjNTEjJDEjJDYjJDgz", "name": "강남힐병원", "kind": "병원", "sido": "서울", "sigungu": "관악구", "address": "서울특별시 관악구 남부순환로 1449, 강남힐병원 (신림동)", "phone": "02-853-4600", "homepage": null, "totalDoctors": 5, "lat": 37.4815953, "lng": 126.9117246, "kidsCare": false, "erCare": true}, {"key": "JDQ4MTg4MSM1MSMkMSMkMCMkODkkMzgxMzUxIzExIyQxIyQ3IyQ5OSQzNjE4MzIjNDEjJDEjJDQjJDgz", "name": "강동경희대학교병원", "kind": "종합병원", "sido": "서울", "sigungu": "강동구", "address": "서울특별시 강동구 동남로 892, (상일동)", "phone": "02-440-7114", "homepage": "http://www.khnmc.or.kr", "totalDoctors": 288, "lat": 37.553536, "lng": 127.1576732, "kidsCare": true, "erCare": true}, {"key": "JDQ4MTg4MSM1MSMkMSMkMCMkNjIkMzgxMzUxIzExIyQxIyQzIyQwMyQzNjEwMDIjNjEjJDEjJDAjJDgz", "name": "강동경희대학교치과병원", "kind": "치과병원", "sido": "서울", "sigungu": "강동구", "address": "서울특별시 강동구 동남로 892, (상일제1동)", "phone": "02-440-7114", "homepage": null, "totalDoctors": 37, "lat": 37.5535361, "lng": 127.1576732, "kidsCare": false, "erCare": false}, {"key": "JDQ4MTg4MSM1MSMkMSMkMCMkMTMkMzgxMTkxIzExIyQxIyQzIyQwMyQ0NjEwMDIjNDEjJDEjJDgjJDgz", "name": "강동경희대학교한방병원", "kind": "한방병원", "sido": "서울", "sigungu": "강동구", "address": "서울특별시 강동구 동남로 892, (상일동)", "phone": "02-440-7114", "homepage": null, "totalDoctors": 27, "lat": 37.5535361, "lng": 127.1576732, "kidsCare": false, "erCare": false}, {"key": "JDQ4MTg4MSM1MSMkMSMkMCMkMTMkMzgxMTkxIzIxIyQxIyQxIyQ5OSQyNjEyMjIjNTEjJDEjJDIjJDgz", "name": "강동기운찬한방병원", "kind": "한방병원", "sido": "서울", "sigungu": "강동구", "address": "서울특별시 강동구 천호대로 1133, 서울M타워 5,8,9,10층 (길동)", "phone": "02-1533-3907", "homepage": null, "totalDoctors": 6, "lat": 37.5346934, "lng": 127.137523, "kidsCare": false, "erCare": false}, {"key": "JDQ4MTYyMiM1MSMkMSMkMCMkOTkkNTgxMzUxIzIxIyQxIyQxIyQxMyQ0NjE0ODEjODEjJDEjJDYjJDgz", "name": "강동미사노블요양병원", "kind": "요양병원", "sido": "경기", "sigungu": "하남시", "address": "경기도 하남시 미사대로 472, SR광장프라자 204~208호,3층,4층,5층호 (망월동)", "phone": "031-8026-2222", "homepage": null, "totalDoctors": 4, "lat": 37.5622044, "lng": 127.2008721, "kidsCare": false, "erCare": false}, {"key": "JDQ4MTYyMiM1MSMkMSMkMCMkMTMkMzgxMTkxIzIxIyQxIyQ5IyQ3MiQyNjEwMDIjNjEjJDEjJDAjJDgz", "name": "강동미사한방병원", "kind": "한방병원", "sido": "경기", "sigungu": "하남시", "address": "경기도 하남시 미사강변중앙로 190, 하남미사 롯데캐슬 스타 323~346호,348호,367~387호 (망월동)", "phone": "031-796-1275", "homepage": null, "totalDoctors": 5, "lat": 37.5637858, "lng": 127.1905364, "kidsCare": false, "erCare": false}, {"key": "JDQ4MTAxMiM1MSMkMSMkMCMkOTkkMzgxMzUxIzExIyQxIyQ3IyQ3OSQzNjEwMDIjNjEjJDEjJDgjJDgz", "name": "강동병원", "kind": "병원", "sido": "부산", "sigungu": "부산사하구", "address": "부산광역시 사하구 다대로 145, (신평동)", "phone": "051-292-1940", "homepage": null, "totalDoctors": 6, "lat": 35.0896572, "lng": 128.9782847, "kidsCare": true, "erCare": false}, {"key": "JDQ4MTg4MSM1MSMkMSMkMCMkOTkkNTgxMzUxIzIxIyQxIyQxIyQ3OSQyNjEyMjIjODEjJDEjJDYjJDgz", "name": "강동성모요양병원", "kind": "요양병원", "sido": "서울", "sigungu": "강동구", "address": "서울특별시 강동구 올림픽로80길 31, 로뎀빌딩 (천호동)", "phone": "02-488-0020", "homepage": null, "totalDoctors": 10, "lat": 37.5434839, "lng": 127.1271889, "kidsCare": false, "erCare": false}, {"key": "JDQ4MTYyMiM1MSMkMSMkMCMkOTkkNTgxMzUxIzUxIyQxIyQxIyQ5MiQzNjE0ODEjNDEjJDEjJDQjJDgz", "name": "강동스마일요양병원", "kind": "요양병원", "sido": "경기", "sigungu": "하남시", "address": "경기도 하남시 미사강변대로54번길 70, 산우빌딩 지3, 지1, 1층일부, 2~5층호 (풍산동)", "phone": "031-794-9939", "homepage": null, "totalDoctors": 10, "lat": 37.5558132, "lng": 127.1894676, "kidsCare": false, "erCare": false}, {"key": "JDQ4MTg4MSM1MSMkMSMkMCMkOTkkMzgxMzUxIzUxIyQxIyQxIyQ4OSQyNjEwMDIjNTEjJDEjJDIjJDgz", "name": "강동아너스힐병원", "kind": "병원", "sido": "서울", "sigungu": "강동구", "address": "서울특별시 강동구 양재대로 1463, 5~15층 (길동)", "phone": "02-6677-7533", "homepage": null, "totalDoctors": 8, "lat": 37.5366086, "lng": 127.1392273, "kidsCare": false, "erCare": false}, {"key": "JDQ4MTg4MSM1MSMkMSMkMCMkOTkkMzgxMzUxIzMxIyQxIyQzIyQxMyQ0NjEwMDIjNzEjJDEjJDgjJDgz", "name": "강동연세병원", "kind": "병원", "sido": "서울", "sigungu": "강동구", "address": "서울특별시 강동구 올림픽로 734, (천호동)", "phone": "02-1899-0102", "homepage": "강동연세병원.com", "totalDoctors": 4, "lat": 37.5467696, "lng": 127.1266323, "kidsCare": false, "erCare": false}, {"key": "JDQ4MTg4MSM1MSMkMSMkMCMkOTkkNTgxMzUxIzExIyQxIyQ3IyQwMyQzNjE0ODEjNzEjJDEjJDgjJDgz", "name": "강동우리들요양병원", "kind": "요양병원", "sido": "서울", "sigungu": "강동구", "address": "서울특별시 강동구 구천면로 202, 행복타워빌딩 B2,2,3,4,6층 (천호동)", "phone": "02-474-7570", "homepage": null, "totalDoctors": 7, "lat": 37.5401093, "lng": 127.127112, "kidsCare": false, "erCare": false}, {"key": "JDQ4MTg4MSM1MSMkMSMkMCMkMTMkMzgxMTkxIzExIyQxIyQzIyQxMyQzNjEyMjIjNTEjJDEjJDYjJDgz", "name": "강동한방병원", "kind": "한방병원", "sido": "서울", "sigungu": "강동구", "address": "서울특별시 강동구 양재대로 1556, (길동)", "phone": "02-455-4500", "homepage": null, "totalDoctors": 3, "lat": 37.5444572, "lng": 127.1427559, "kidsCare": false, "erCare": false}, {"key": "JDQ4MTYyMiM1MSMkMSMkNCMkODkkMzgxMzUxIzExIyQxIyQzIyQ4OSQ0NjEwMDIjNDEjJDEjJDgjJDgz", "name": "강릉아산병원", "kind": "상급종합", "sido": "강원", "sigungu": "강릉시", "address": "강원특별자치도 강릉시 사천면 방동길 38-0, 강릉아산병원", "phone": "033-610-3114", "homepage": "http://www.gnah.co.kr", "totalDoctors": 247, "lat": 37.8184324, "lng": 128.8578411, "kidsCare": true, "erCare": true}, {"key": "JDQ4MTYyMiM1MSMkMSMkNCMkOTkkNTgxMzUxIzExIyQxIyQzIyQ2MiQ0NjEwMDIjNDEjJDEjJDgjJDgz", "name": "강릉연세요양병원", "kind": "요양병원", "sido": "강원", "sigungu": "강릉시", "address": "강원특별자치도 강릉시 옥가로 70, (옥천동)", "phone": "033-645-1400", "homepage": null, "totalDoctors": 3, "lat": 37.7623731, "lng": 128.9007545, "kidsCare": false, "erCare": false}, {"key": "JDQ4MTYyMiM1MSMkMSMkNCMkOTkkNTgxOTYxIzExIyQxIyQzIyQ3OSQzNjEyMjIjNTEjJDEjJDYjJDgz", "name": "강릉율곡병원", "kind": "정신병원", "sido": "강원", "sigungu": "강릉시", "address": "강원특별자치도 강릉시 동해대로3304번길 11, (난곡동)", "phone": "033-655-1133", "homepage": null, "totalDoctors": 3, "lat": 37.7864983, "lng": 128.8740332, "kidsCare": false, "erCare": false}, {"key": "JDQ4MTAxMiM1MSMkMSMkMCMkOTkkNTgxMzUxIzIxIyQxIyQ5IyQ4OSQzNjEyMjIjNjEjJDEjJDAjJDgz", "name": "강림요양병원", "kind": "요양병원", "sido": "부산", "sigungu": "부산사상구", "address": "부산광역시 사상구 낙동대로 792, (엄궁동)", "phone": "051-329-9000", "homepage": null, "totalDoctors": 9, "lat": 35.1312796, "lng": 128.9728208, "kidsCare": false, "erCare": false}, {"key": "JDQ4MTYyMiM4MSMkMSMkNCMkOTkkNTgxMzUxIzIxIyQxIyQ1IyQ2MiQ0NjE0ODEjNjEjJDEjJDAjJDgz", "name": "강민의료재단 나누리요양병원", "kind": "요양병원", "sido": "경남", "sigungu": "김해시", "address": "경상남도 김해시 진례면 진례로74번길 47, (진례면)", "phone": "055-342-1101", "homepage": null, "totalDoctors": 5, "lat": 35.2395153, "lng": 128.7534262, "kidsCare": false, "erCare": false}, {"key": "JDQ4MTYyMiM1MSMkMSMkMCMkOTkkNTgxMzUxIzUxIyQxIyQxIyQxMyQyNjE0ODEjNDEjJDEjJDgjJDgz", "name": "강변요양병원", "kind": "요양병원", "sido": "경기", "sigungu": "가평군", "address": "경기도 가평군 가평읍 북한강변로 160, (가평읍)", "phone": "031-582-8858", "homepage": null, "totalDoctors": 2, "lat": 37.7473062, "lng": 127.5259488, "kidsCare": false, "erCare": false}, {"key": "JDQ4MTYyMiM1MSMkMSMkMCMkOTkkMzgxMzUxIzIxIyQxIyQ1IyQ5OSQzNjE0ODEjODEjJDEjJDIjJDgz", "name": "강병원", "kind": "병원", "sido": "경기", "sigungu": "포천시", "address": "경기도 포천시 포천로 1570, (신읍동)", "phone": "031-535-2119", "homepage": null, "totalDoctors": 4, "lat": 37.8981468, "lng": 127.2046956, "kidsCare": true, "erCare": false}, {"key": "JDQ4MTYyMiM4MSMkMSMkNCMkOTkkMzgxMzUxIzIxIyQxIyQxIyQxMyQzNjEwMDIjNjEjJDEjJDgjJDgz", "name": "강병원", "kind": "병원", "sido": "경남", "sigungu": "고성군", "address": "경상남도 고성군 고성읍 중앙로 49, (고성읍)", "phone": "055-673-0101", "homepage": null, "totalDoctors": 10, "lat": 34.9741871, "lng": 128.3254109, "kidsCare": false, "erCare": true}, {"key": "JDQ4MTg4MSM1MSMkMSMkMCMkOTkkMzgxMzUxIzMxIyQxIyQzIyQ3OSQyNjEwMDIjNjEjJDEjJDgjJDgz", "name": "강북21세기병원", "kind": "병원", "sido": "서울", "sigungu": "중랑구", "address": "서울특별시 중랑구 면목로 473, (상봉동)", "phone": "1577-6336", "homepage": "www.kb21spine.co.kr/", "totalDoctors": 7, "lat": 37.594048, "lng": 127.0856598, "kidsCare": false, "erCare": false}, {"key": "JDQ4MTg4MSM1MSMkMSMkMCMkODkkMzgxMzUxIzExIyQxIyQzIyQ3OSQ0NjEwMDIjNjEjJDEjJDQjJDgz", "name": "강북삼성병원", "kind": "상급종합", "sido": "서울", "sigungu": "종로구", "address": "서울특별시 종로구 새문안로 29, (평동)", "phone": "02-2001-2001", "homepage": "http://www.kbsmc.co.kr", "totalDoctors": 401, "lat": 37.5684083, "lng": 126.96775, "kidsCare": true, "erCare": true}, {"key": "JDQ4MTYyMiM1MSMkMSMkMCMkOTkkNTgxMzUxIzIxIyQyIyQxIyQwMCQyNjE0ODEjNDEjJDEjJDQjJDgz", "name": "강북성심요양병원", "kind": "요양병원", "sido": "경기", "sigungu": "고양덕양구", "address": "경기도 고양시 덕양구 중앙로557번길 7-14, (행신동)", "phone": "031-978-1122", "homepage": "http://www.kbhsungsim.co.kr", "totalDoctors": 7, "lat": 37.6227032, "lng": 126.8354367, "kidsCare": true, "erCare": false}, {"key": "JDQ4MTg4MSM1MSMkMSMkMCMkOTkkMzgxMzUxIzQxIyQxIyQ3IyQ3OSQyNjEwMDIjODEjJDEjJDYjJDgz", "name": "강북연세병원", "kind": "병원", "sido": "서울", "sigungu": "노원구", "address": "서울특별시 노원구 동일로 996, (공릉동)", "phone": "02-2092-5505", "homepage": null, "totalDoctors": 11, "lat": 37.6191956, "lng": 127.0754877, "kidsCare": false, "erCare": false}, {"key": "JDQ4MTg4MSM1MSMkMSMkMCMkOTkkNTgxMzUxIzIxIyQxIyQxIyQwMyQzNjE4MzIjODEjJDEjJDIjJDgz", "name": "강북연세요양병원", "kind": "요양병원", "sido": "서울", "sigungu": "서대문구", "address": "서울특별시 서대문구 성산로 335, (연희동)", "phone": "02-335-2277", "homepage": null, "totalDoctors": 5, "lat": 37.5661224, "lng": 126.9276697, "kidsCare": false, "erCare": false}, {"key": "JDQ4MTYyMiM4MSMkMSMkMCMkOTkkNTgxMzUxIzIxIyQxIyQ1IyQxMyQyNjEyMjIjODEjJDEjJDIjJDgz", "name": "강북요양병원", "kind": "요양병원", "sido": "대구", "sigungu": "대구북구", "address": "대구광역시 북구 칠곡중앙대로 504-6, (읍내동)", "phone": "053-313-6006", "homepage": null, "totalDoctors": 5, "lat": 35.9398743, "lng": 128.5507763, "kidsCare": false, "erCare": false}, {"key": "JDQ4MTg4MSM1MSMkMSMkMCMkOTkkMzgxMzUxIzMxIyQxIyQ3IyQ5OSQyNjEyMjIjNjEjJDEjJDQjJDgz", "name": "강북우리병원", "kind": "병원", "sido": "서울", "sigungu": "강북구", "address": "서울특별시 강북구 한천로 1083, 수유동 (수유동, 광산타워)", "phone": "02-6222-1000", "homepage": null, "totalDoctors": 5, "lat": 37.6425442, "lng": 127.022638, "kidsCare": false, "erCare": false}, {"key": "JDQ4MTg4MSM1MSMkMSMkMCMkOTkkMzgxMzUxIzQxIyQxIyQ3IyQ3MiQyNjEwMDIjNjEjJDEjJDQjJDgz", "name": "강북으뜸병원", "kind": "병원", "sido": "서울", "sigungu": "강북구", "address": "서울특별시 강북구 도봉로 187, 지하1층, 지상1층~지상5층 (미아동)", "phone": "02-986-0334", "homepage": null, "totalDoctors": 6, "lat": 37.6254286, "lng": 127.026202, "kidsCare": false, "erCare": false}, {"key": "JDQ4MTg4MSM1MSMkMSMkMCMkOTkkNTgxMzUxIzIxIyQxIyQxIyQ3MiQ0NjE0ODEjNjEjJDEjJDAjJDgz", "name": "강북휴요양병원", "kind": "요양병원", "sido": "서울", "sigungu": "강북구", "address": "서울특별시 강북구 도봉로 161, 서울컨벤션웨딩홀 (미아동)", "phone": "02-982-7080", "homepage": null, "totalDoctors": 5, "lat": 37.6231841, "lng": 127.027052, "kidsCare": false, "erCare": false}, {"key": "JDQ4MTg4MSM1MSMkMSMkMCMkMTMkMzgxMTkxIzIxIyQxIyQxIyQ4OSQzNjEyMjIjODEjJDEjJDIjJDgz", "name": "강서365한방병원", "kind": "한방병원", "sido": "서울", "sigungu": "강서구", "address": "서울특별시 강서구 공항대로45길 15, 상가동 7~11층 (등촌동, 가양역 두산위브)", "phone": "02-3663-3655", "homepage": null, "totalDoctors": 5, "lat": 37.5564906, "lng": 126.8544675, "kidsCare": false, "erCare": false}, {"key": "JDQ4MTg4MSM1MSMkMSMkMCMkOTkkMzgxMzUxIzQxIyQxIyQ3IyQ2MiQyNjE4MzIjNjEjJDEjJDAjJDgz", "name": "강서바른세상병원", "kind": "병원", "sido": "서울", "sigungu": "강서구", "address": "서울특별시 강서구 금낭화로 9, 바른세상병원 1~7층 (방화동)", "phone": "02-2603-0300", "homepage": null, "totalDoctors": 4, "lat": 37.5661467, "lng": 126.8116185, "kidsCare": false, "erCare": false}, {"key": "JDQ4MTg4MSM1MSMkMSMkMCMkOTkkMzgxMzUxIzMxIyQyIyQzIyQwMCQzNjEyMjIjODEjJDEjJDYjJDgz", "name": "강서송도병원", "kind": "병원", "sido": "서울", "sigungu": "강서구", "address": "서울특별시 강서구 공항대로 315, (등촌동, 서울시니어강서타워)", "phone": "02-2659-0600", "homepage": "http://www.gsongdo.com", "totalDoctors": 8, "lat": 37.5585273, "lng": 126.8427872, "kidsCare": false, "erCare": false}, {"key": "JDQ4MTg4MSM1MSMkMSMkMCMkMTMkMzgxMTkxIzExIyQxIyQ3IyQwMyQzNjEwMDIjNjEjJDEjJDAjJDgz", "name": "강서수한방병원", "kind": "한방병원", "sido": "서울", "sigungu": "강서구", "address": "서울특별시 강서구 곰달래로 54, 백제빌딩 1~7층 (화곡동)", "phone": "02-2696-8275", "homepage": null, "totalDoctors": 3, "lat": 37.5299511, "lng": 126.8388202, "kidsCare": false, "erCare": false}, {"key": "JDQ4MTg4MSM1MSMkMSMkMCMkOTkkMzgxMzUxIzQxIyQxIyQ3IyQxMyQyNjE4MzIjNDEjJDEjJDgjJDgz", "name": "강서케이병원", "kind": "병원", "sido": "서울", "sigungu": "강서구", "address": "서울특별시 강서구 가로공원로 187, 강서케이병원 (화곡동)", "phone": "1833-7530", "homepage": "https://gskhospital.com", "totalDoctors": 9, "lat": 37.537373, "lng": 126.8367214, "kidsCare": false, "erCare": false}, {"key": "JDQ4MTg4MSM1MSMkMSMkMCMkOTkkMzgxMzUxIzUxIyQxIyQxIyQ3OSQzNjE0ODEjNDEjJDEjJDQjJDgz", "name": "강서푸른꿈성모어린이병원", "kind": "병원", "sido": "서울", "sigungu": "강서구", "address": "서울특별시 강서구 공항대로41길 34, 플러스존 3,8,9층 (등촌동)", "phone": "02-3665-0823", "homepage": null, "totalDoctors": 3, "lat": 37.5592839, "lng": 126.8457301, "kidsCare": true, "erCare": false}, {"key": "JDQ4MTg4MSM1MSMkMSMkMCMkOTkkNTgxOTYxIzExIyQxIyQzIyQ3OSQ0NjE0ODEjNDEjJDEjJDgjJDgz", "name": "강서필병원", "kind": "정신병원", "sido": "서울", "sigungu": "강서구", "address": "서울특별시 강서구 강서로17길 24, (화곡동)", "phone": "02-2608-8855", "homepage": null, "totalDoctors": 3, "lat": 37.5330122, "lng": 126.8443478, "kidsCare": false, "erCare": false}, {"key": "JDQ4MTg4MSM1MSMkMSMkMCMkOTkkMzgxMzUxIzMxIyQxIyQ3IyQ4MiQzNjEwMDIjODEjJDEjJDYjJDgz", "name": "강서힘찬병원", "kind": "병원", "sido": "서울", "sigungu": "강서구", "address": "서울특별시 강서구 강서로56길 38, 강서힘찬병원 (등촌동)", "phone": "02-1899-2228", "homepage": "www.himchanhospital.com", "totalDoctors": 9, "lat": 37.5592035, "lng": 126.8406822, "kidsCare": false, "erCare": false}, {"key": "JDQ4MTYyMiM1MSMkMSMkNCMkODkkMzgxMzUxIzExIyQxIyQzIyQ5OSQyNjEwMDIjNTEjJDEjJDYjJDgz", "name": "강원대학교병원", "kind": "종합병원", "sido": "강원", "sigungu": "춘천시", "address": "강원특별자치도 춘천시 백령로 156, (효자동)", "phone": "033-258-2000", "homepage": "http://www.knuh.or.kr/main/main.asp", "totalDoctors": 253, "lat": 37.8751611, "lng": 127.7448909, "kidsCare": true, "erCare": true}, {"key": "JDQ4MTYyMiM1MSMkMSMkNCMkNjIkMzgxMzUxIzExIyQxIyQzIyQ3OSQyNjEwMDIjNTEjJDEjJDIjJDgz", "name": "강원대학교치과병원", "kind": "치과병원", "sido": "강원", "sigungu": "강릉시", "address": "강원특별자치도 강릉시 죽헌길 7,  (지변동)", "phone": "033-640-3114", "homepage": null, "totalDoctors": 93, "lat": 37.765695, "lng": 128.8700048, "kidsCare": false, "erCare": false}, {"key": "JDQ4MTYyMiM1MSMkMSMkNCMkODkkMzgxMzUxIzExIyQxIyQzIyQ4OSQzNjEwMDIjODEjJDEjJDYjJDgz", "name": "강원특별자치도강릉의료원", "kind": "종합병원", "sido": "강원", "sigungu": "강릉시", "address": "강원특별자치도 강릉시 경강로 2007-0, 강릉의료원", "phone": "033-610-1200", "homepage": "http://www.gnmc.or.kr", "totalDoctors": 17, "lat": 37.7492828, "lng": 128.8888316, "kidsCare": true, "erCare": true}, {"key": "JDQ4MTYyMiM1MSMkMSMkNCMkOTkkNTgxMzUxIzExIyQxIyQzIyQ2MiQyNjEyMjIjNjEjJDEjJDAjJDgz", "name": "강원특별자치도립 강릉요양병원", "kind": "요양병원", "sido": "강원", "sigungu": "강릉시", "address": "강원특별자치도 강릉시 경강로 2009, (남문동)", "phone": "033-640-8800", "homepage": "http://gnch.or.kr", "totalDoctors": 3, "lat": 37.7496058, "lng": 128.8894152, "kidsCare": false, "erCare": false}, {"key": "JDQ4MTYyMiM1MSMkMSMkNCMkODkkMzgxMzUxIzExIyQxIyQzIyQ3OSQzNjEyMjIjNDEjJDEjJDQjJDgz", "name": "강원특별자치도삼척의료원", "kind": "종합병원", "sido": "강원", "sigungu": "삼척시", "address": "강원특별자치도 삼척시 오십천로 473-0, 강원특별자치도삼척의료원", "phone": "033-572-1141", "homepage": "http://www.ksmc.or.kr", "totalDoctors": 29, "lat": 37.4400223, "lng": 129.1705232, "kidsCare": true, "erCare": true}, {"key": "JDQ4MTYyMiM1MSMkMSMkNCMkODkkMzgxMzUxIzExIyQxIyQzIyQ4OSQzNjE0ODEjNDEjJDEjJDgjJDgz", "name": "강원특별자치도속초의료원", "kind": "종합병원", "sido": "강원", "sigungu": "속초시", "address": "강원특별자치도 속초시 영랑호반길 3, (영랑동)", "phone": "033-630-6000", "homepage": "http://www.sokchomc.co.kr", "totalDoctors": 20, "lat": 38.2164607, "lng": 128.5892486, "kidsCare": true, "erCare": true}, {"key": "JDQ4MTYyMiM1MSMkMSMkNCMkODkkMzgxMzUxIzExIyQxIyQzIyQ3OSQzNjE4MzIjODEjJDEjJDIjJDgz", "name": "강원특별자치도영월의료원", "kind": "종합병원", "sido": "강원", "sigungu": "영월군", "address": "강원특별자치도 영월군 영월읍 중앙1로 59, (영월읍)", "phone": "033-370-9101", "homepage": "http://www.youngwol.org/", "totalDoctors": 21, "lat": 37.1864525, "lng": 128.4652387, "kidsCare": true, "erCare": true}, {"key": "JDQ4MTYyMiM1MSMkMSMkNCMkODkkMzgxMzUxIzExIyQxIyQzIyQ3OSQ0NjE0ODEjNjEjJDEjJDgjJDgz", "name": "강원특별자치도원주의료원", "kind": "종합병원", "sido": "강원", "sigungu": "원주시", "address": "강원특별자치도 원주시 서원대로 387,  (개운동)", "phone": "033-760-4500", "homepage": "http://www.kwmc.or.kr", "totalDoctors": 42, "lat": 37.332608, "lng": 127.949225, "kidsCare": true, "erCare": true}, {"key": "JDQ4MTYyMiM1MSMkMSMkNCMkOTkkMzgxMzUxIzExIyQxIyQzIyQ4MiQzNjE0ODEjNDEjJDEjJDgjJDgz", "name": "강원특별자치도재활병원", "kind": "병원", "sido": "강원", "sigungu": "춘천시", "address": "강원특별자치도 춘천시 충열로142번길 24-16,  (우두동)", "phone": "033-248-7700", "homepage": null, "totalDoctors": 6, "lat": 37.9036442, "lng": 127.7411391, "kidsCare": false, "erCare": false}, {"key": "JDQ4MTYyMiM4MSMkMSMkNCMkODkkMzgxMzUxIzExIyQxIyQzIyQ4MiQzNjEwMDIjNzEjJDEjJDgjJDgz", "name": "강일병원", "kind": "종합병원", "sido": "경남", "sigungu": "김해시", "address": "경상남도 김해시 가락로 359, (구산동)", "phone": "055-822-0100", "homepage": null, "totalDoctors": 23, "lat": 35.2567027, "lng": 128.8696111, "kidsCare": true, "erCare": true}, {"key": "JDQ4MTYyMiM3MSMkMSMkMCMkOTkkNTgxMzUxIzIxIyQxIyQxIyQ4OSQzNjE0ODEjNjEjJDEjJDgjJDgz", "name": "강진효요양병원", "kind": "요양병원", "sido": "전남", "sigungu": "강진군", "address": "전남광주통합특별시 강진군 강진읍 해강로 1322-0, ()", "phone": "061-430-7501", "homepage": null, "totalDoctors": 6, "lat": 34.6230048, "lng": 126.752571, "kidsCare": false, "erCare": false}, {"key": "JDQ4MTg4MSM1MSMkMSMkMCMkOTkkMzgxMzUxIzQxIyQxIyQ3IyQxMyQ0NjEwMDIjNDEjJDEjJDQjJDgz", "name": "강철병원", "kind": "병원", "sido": "서울", "sigungu": "송파구", "address": "서울특별시 송파구 백제고분로 252, SH타워 2~8층 (삼전동)", "phone": "02-6287-5500", "homepage": null, "totalDoctors": 6, "lat": 37.5023107, "lng": 127.0942945, "kidsCare": false, "erCare": false}, {"key": "JDQ4MTYyMiM4MSMkMSMkNCMkMTMkMzgxMTkxIzExIyQxIyQzIyQ3MiQ0NjE0ODEjNDEjJDEjJDgjJDgz", "name": "강추한방병원", "kind": "한방병원", "sido": "경남", "sigungu": "창원마산회원구", "address": "경상남도 창원시 마산회원구 3·15대로 686, 365병원 본관동 5,7,8,10층 501,701,801,1003호 (석전동)", "phone": "055-221-0365", "homepage": null, "totalDoctors": 6, "lat": 35.2336646, "lng": 128.5794429, "kidsCare": false, "erCare": false}, {"key": "JDQ4MTYyMiM1MSMkMSMkMCMkOTkkNTgxMzUxIzUxIyQxIyQ1IyQ3OSQzNjEwMDIjNTEjJDEjJDYjJDgz", "name": "강화요양병원", "kind": "요양병원", "sido": "인천", "sigungu": "인천강화군", "address": "인천광역시 강화군 길상면 강화동로 181, (길상면)", "phone": "032-937-0639", "homepage": null, "totalDoctors": 4, "lat": 37.6554282, "lng": 126.4919705, "kidsCare": true, "erCare": true}, {"key": "JDQ4MTAxMiM1MSMkMSMkMCMkOTkkNTgxMzUxIzIxIyQxIyQ1IyQwMyQzNjEyMjIjODEjJDEjJDYjJDgz", "name": "개금길요양병원", "kind": "요양병원", "sido": "부산", "sigungu": "부산진구", "address": "부산광역시 부산진구 백양대로 252, 1~7층 (개금동)", "phone": "051-711-1279", "homepage": null, "totalDoctors": 5, "lat": 35.1563937, "lng": 129.02322, "kidsCare": false, "erCare": false}, {"key": "JDQ4MTAxMiM1MSMkMSMkMCMkMTMkMzgxMTkxIzExIyQxIyQzIyQ4MiQzNjEyMjIjNjEjJDEjJDAjJDgz", "name": "개금진한방병원", "kind": "한방병원", "sido": "부산", "sigungu": "부산진구", "address": "부산광역시 부산진구 가야대로 451, 개금메디칼빌딩 3층 (개금동)", "phone": "051-976-1000", "homepage": null, "totalDoctors": 6, "lat": 35.1535618, "lng": 129.0215342, "kidsCare": false, "erCare": false}, {"key": "JDQ4MTAxMiM1MSMkMSMkMCMkOTkkMzgxMzUxIzIxIyQxIyQ1IyQ3OSQzNjEyMjIjNzEjJDEjJDgjJDgz", "name": "개나리소아청소년과병원", "kind": "병원", "sido": "부산", "sigungu": "부산강서구", "address": "부산광역시 강서구 명지국제8로 269, 유당빌딩 4~5층 (명지동)", "phone": "051-202-1113", "homepage": "http://www.gaenari.co.kr/", "totalDoctors": 1, "lat": 35.0981159, "lng": 128.92243, "kidsCare": true, "erCare": false}, {"key": "JDQ4MTYyMiM4MSMkMSMkNCMkOTkkNTgxMzUxIzIxIyQxIyQ1IyQ2MiQzNjEwMDIjNDEjJDEjJDQjJDgz", "name": "갤러리의아침요양병원", "kind": "요양병원", "sido": "경남", "sigungu": "밀양시", "address": "경상남도 밀양시 내이신촌1길 14, (내이동)", "phone": "055-352-2006", "homepage": null, "totalDoctors": 3, "lat": 35.5049927, "lng": 128.7351006, "kidsCare": false, "erCare": false}, {"key": "JDU4MTI3MSM1MSMkMSMkNCMkMTMkMzgxMTkxIzExIyQxIyQzIyQ3OSQzNjE4MzIjODEjJDEjJDIjJDgz", "name": "거북섬한방병원", "kind": "한방병원", "sido": "경기", "sigungu": "시흥시", "address": "경기도 시흥시 거북섬1길 6, 거북섬1길 10, 3층 (정왕동)", "phone": "031-497-7582", "homepage": null, "totalDoctors": 2, "lat": 37.3256924, "lng": 126.6769965, "kidsCare": false, "erCare": false}, {"key": "JDQ4MTAxMiM1MSMkMSMkMCMkOTkkMzgxMzUxIzIxIyQxIyQ5IyQ4MiQzNjEwMDIjODEjJDEjJDYjJDgz", "name": "거인병원", "kind": "병원", "sido": "부산", "sigungu": "부산동래구", "address": "부산광역시 동래구 여고로 12, 거인병원 지하1,지상2~10층 (사직동)", "phone": "996-7000", "homepage": null, "totalDoctors": 10, "lat": 35.1946237, "lng": 129.0653569, "kidsCare": false, "erCare": false}, {"key": "JDQ4MTYyMiM4MSMkMSMkNCMkOTkkMzgxMzUxIzIxIyQxIyQ1IyQ5MiQzNjE4MzIjNjEjJDEjJDAjJDgz", "name": "거제아동병원", "kind": "병원", "sido": "경남", "sigungu": "거제시", "address": "경상남도 거제시 동문천로 52, (고현동)", "phone": "055-632-8225", "homepage": "www.geojechildren.com/", "totalDoctors": 6, "lat": 34.8828723, "lng": 128.6262587, "kidsCare": true, "erCare": false}, {"key": "JDQ4MTYyMiM4MSMkMSMkNCMkOTkkNTgxMzUxIzIxIyQxIyQ1IyQxMyQyNjEwMDIjNTEjJDEjJDYjJDgz", "name": "거제요양병원", "kind": "요양병원", "sido": "경남", "sigungu": "거제시", "address": "경상남도 거제시 거제대로 2975, (장승포동)", "phone": "055-682-5555", "homepage": null, "totalDoctors": 5, "lat": 34.859862, "lng": 128.7184787, "kidsCare": false, "erCare": false}, {"key": "JDQ4MTYyMiM4MSMkMSMkNCMkOTkkMzgxMzUxIzMxIyQxIyQzIyQwMyQzNjE4MzIjNjEjJDEjJDAjJDgz", "name": "거제중앙병원", "kind": "병원", "sido": "경남", "sigungu": "거제시", "address": "경상남도 거제시 고현로 89, (고현동)", "phone": "055-635-3211", "homepage": null, "totalDoctors": 3, "lat": 34.8866515, "lng": 128.6222499, "kidsCare": false, "erCare": false}, {"key": "JDQ4MTYyMiM4MSMkMSMkNCMkOTkkNTgxMzUxIzExIyQyIyQzIyQwMCQ0NjEwMDIjNjEjJDEjJDgjJDgz", "name": "거창군립 노인요양병원", "kind": "요양병원", "sido": "경남", "sigungu": "거창군", "address": "경상남도 거창군 거창읍 운정3길 180, (거창읍)", "phone": "943-3333", "homepage": null, "totalDoctors": 3, "lat": 35.6757991, "lng": 127.8908109, "kidsCare": false, "erCare": false}, {"key": "JDQ4MTYyMiM4MSMkMSMkNCMkOTkkMzgxMzUxIzExIyQxIyQzIyQ4OSQzNjEyMjIjNTEjJDEjJDYjJDgz", "name": "거창적십자병원", "kind": "병원", "sido": "경남", "sigungu": "거창군", "address": "경상남도 거창군 거창읍 중앙로 91, (거창읍)", "phone": "055-944-3251", "homepage": "http://www.rch.or.kr/geochang", "totalDoctors": 11, "lat": 35.6867599, "lng": 127.9087378, "kidsCare": true, "erCare": false}, {"key": "JDQ4MTAxMiM1MSMkMSMkMCMkOTkkMzgxMzUxIzIxIyQxIyQ5IyQwMyQzNjEwMDIjNTEjJDEjJDYjJDgz", "name": "건강만세365병원", "kind": "병원", "sido": "부산", "sigungu": "부산중구", "address": "부산광역시 중구 대청로 105, 건강만세365병원 -1,1~9층 (대청동2가)", "phone": "051-711-0365", "homepage": null, "totalDoctors": 9, "lat": 35.1031753, "lng": 129.0313991, "kidsCare": true, "erCare": false}, {"key": "JDQ4MTYyMiM3MSMkMSMkMCMkMTMkMzgxMTkxIzIxIyQxIyQ1IyQ5OSQ0NjEwMDIjNDEjJDEjJDQjJDgz", "name": "건강한방병원", "kind": "한방병원", "sido": "전남", "sigungu": "광주남구", "address": "전남광주통합특별시 남구 중앙로 80, (서동)", "phone": "062-452-8585", "homepage": null, "totalDoctors": 2, "lat": 35.143343, "lng": 126.9071368, "kidsCare": false, "erCare": false}, {"key": "JDQ4MTg4MSM1MSMkMSMkMCMkNjIkMzgxMzUxIzExIyQxIyQ3IyQwMyQyNjE4MzIjNjEjJDEjJDAjJDgz", "name": "건강한세상앞선치과병원", "kind": "치과병원", "sido": "서울", "sigungu": "강남구", "address": "서울특별시 강남구 테헤란로87길 36, 도심공항타워 3층 (삼성동)", "phone": "02-555-7528", "homepage": null, "totalDoctors": 1, "lat": 37.5104935, "lng": 127.0586267, "kidsCare": false, "erCare": false}, {"key": "JDU4MTI3MSM1MSMkMSMkNCMkOTkkMzgxMzUxIzExIyQxIyQzIyQ4OSQyNjE4MzIjNDEjJDEjJDQjJDgz", "name": "건강한세상의료생협 참빛병원", "kind": "병원", "sido": "경기", "sigungu": "부천원미구", "address": "경기도 부천시 원미구 수도로 202, 은성프라자 1층일부, 2층일부, 3층 (도당동)", "phone": "1522-3252", "homepage": null, "totalDoctors": 3, "lat": 37.5196451, "lng": 126.7875613, "kidsCare": false, "erCare": false}, {"key": "JDQ4MTYyMiM4MSMkMSMkNCMkOTkkMzgxMzUxIzMxIyQxIyQzIyQxMyQyNjEyMjIjNDEjJDEjJDgjJDgz", "name": "건강한윌병원", "kind": "병원", "sido": "울산", "sigungu": "울산남구", "address": "울산광역시 남구 중앙로 282, 5~11층 (신정동)", "phone": "1833-2922", "homepage": null, "totalDoctors": 6, "lat": 35.5458733, "lng": 129.3101817, "kidsCare": false, "erCare": false}, {"key": "JDQ4MTYyMiM1MSMkMSMkOCMkODkkMzgxMzUxIzExIyQxIyQzIyQ4OSQyNjE4MzIjNjEjJDEjJDgjJDgz", "name": "건국대학교 충주병원", "kind": "종합병원", "sido": "충북", "sigungu": "충주시", "address": "충청북도 충주시 국원대로 82-0, 건국대학교충주병원", "phone": "043-840-8200", "homepage": "http://www.kuh.co.kr", "totalDoctors": 47, "lat": 36.9789801, "lng": 127.9288169, "kidsCare": true, "erCare": true}, {"key": "JDQ4MTg4MSM1MSMkMSMkMCMkODkkMzgxMzUxIzExIyQxIyQzIyQ2MiQyNjE4MzIjNjEjJDEjJDQjJDgz", "name": "건국대학교병원", "kind": "상급종합", "sido": "서울", "sigungu": "광진구", "address": "서울특별시 광진구 능동로 120-1, (화양동)", "phone": "1588-1533", "homepage": "http://www.kuh.ac.kr", "totalDoctors": 400, "lat": 37.5403764, "lng": 127.0718276, "kidsCare": true, "erCare": true}, {"key": "JDQ4MTYyMiM4MSMkMSMkMCMkOTkkNTgxMzUxIzIxIyQxIyQ1IyQwMyQ0NjE0ODEjNDEjJDEjJDQjJDgz", "name": "건양요양병원", "kind": "요양병원", "sido": "경북", "sigungu": "안동시", "address": "경상북도 안동시 서후면 서선길 167-0, 건양요양병원", "phone": "054-859-8888", "homepage": null, "totalDoctors": 5, "lat": 36.5885322, "lng": 128.6513534, "kidsCare": false, "erCare": false}, {"key": "JDQ4MTg4MSM1MSMkMSMkMCMkOTkkMzgxMzUxIzIxIyQxIyQxIyQ5OSQzNjEyMjIjNTEjJDEjJDIjJDgz", "name": "건양의료재단 김안과병원", "kind": "병원", "sido": "서울", "sigungu": "영등포구", "address": "서울특별시 영등포구 영신로 136, (영등포동4가)", "phone": "1577-2639", "homepage": "http://www.kimeye.com/kimeye/", "totalDoctors": 57, "lat": 37.5197392, "lng": 126.9014955, "kidsCare": false, "erCare": false}, {"key": "JDQ4MTYyMiM1MSMkMSMkMCMkOTkkMzgxOTYxIzExIyQxIyQ3IyQ4MiQ0NjEwMDIjNDEjJDEjJDgjJDgz", "name": "건주병원", "kind": "병원", "sido": "경기", "sigungu": "부천소사구", "address": "경기도 부천시 소사구 경인로536번길 27, 메디슨167 3,4,5층 (괴안동)", "phone": "1855-1119", "homepage": null, "totalDoctors": 13, "lat": 37.4847387, "lng": 126.8155634, "kidsCare": true, "erCare": false}, {"key": "JDU4MTI3MSM2MSMkMSMkMiMkMTMkMzgxMTkxIzExIyQxIyQzIyQ3OSQyNjE4MzIjNTEjJDEjJDIjJDgz", "name": "검단강함한방병원", "kind": "한방병원", "sido": "인천", "sigungu": "인천서구", "address": "인천광역시 서구 발산로5번길 12, 인천검단 엔젤리움1차 윈팰리스 501~509호 (원당동)", "phone": "032-564-7878", "homepage": null, "totalDoctors": 3, "lat": 37.5933767, "lng": 126.7110851, "kidsCare": false, "erCare": false}, {"key": "JDQ4MTYyMiM1MSMkMSMkMCMkMTMkMzgxMTkxIzIxIyQxIyQxIyQwMyQyNjEwMDIjNTEjJDEjJDYjJDgz", "name": "검단스마일한방병원", "kind": "한방병원", "sido": "인천", "sigungu": "인천서구", "address": "인천광역시 서구 완정로 55, 광진빌딩 2,3,4,5층 (마전동)", "phone": "032-569-8088", "homepage": null, "totalDoctors": 3, "lat": 37.5966322, "lng": 126.6682001, "kidsCare": true, "erCare": false}, {"key": "JDQ4MTYyMiM1MSMkMSMkMCMkOTkkMzgxOTYxIzIxIyQxIyQxIyQ5OSQ0NjEwMDIjODEjJDEjJDIjJDgz", "name": "검단위키즈 병원", "kind": "병원", "sido": "인천", "sigungu": "인천서구", "address": "인천광역시 서구 원당대로 1039, 태경타워 3,4층 전체호 (원당동)", "phone": "032-713-3300", "homepage": null, "totalDoctors": 5, "lat": 37.5938029, "lng": 126.7163342, "kidsCare": true, "erCare": false}, {"key": "JDQ4MTYyMiM1MSMkMSMkMCMkOTkkMzgxOTYxIzIxIyQyIyQxIyQwMCQzNjE4MzIjODEjJDEjJDYjJDgz", "name": "검단조은아이365병원", "kind": "병원", "sido": "인천", "sigungu": "인천서구", "address": "인천광역시 서구 발산로5번길 12, 인천검단 엔젤리움1차 윈팰리스 6,7층 (원당동)", "phone": "032-721-8288", "homepage": null, "totalDoctors": 5, "lat": 37.5933735, "lng": 126.7110779, "kidsCare": true, "erCare": false}, {"key": "JDQ4MTYyMiM1MSMkMSMkMCMkODkkMzgxMzUxIzExIyQxIyQzIyQxMyQzNjE4MzIjNDEjJDEjJDQjJDgz", "name": "검단탑병원", "kind": "종합병원", "sido": "인천", "sigungu": "인천서구", "address": "인천광역시 서구 청마로19번길 5, (당하동)", "phone": "032-590-0114", "homepage": "http://www.tophospital.co.kr/", "totalDoctors": 53, "lat": 37.5924835, "lng": 126.6711792, "kidsCare": true, "erCare": true}, {"key": "JDQ4MTYyMiM1MSMkMSMkMCMkOTkkNTgxMzUxIzIxIyQyIyQ5IyQwMCQyNjEwMDIjNDEjJDEjJDgjJDgz", "name": "경기도립노인전문 평택병원", "kind": "요양병원", "sido": "경기", "sigungu": "평택시", "address": "경기도 평택시 브레인시티로 89, (도일동)", "phone": "031-669-9977", "homepage": "www.goodmsilver.co.kr/", "totalDoctors": 5, "lat": 37.0539138, "lng": 127.0976444, "kidsCare": false, "erCare": false}, {"key": "JDQ4MTYyMiM1MSMkMSMkMCMkOTkkNTgxMzUxIzIxIyQyIyQ1IyQwMCQyNjE4MzIjNDEjJDEjJDgjJDgz", "name": "경기도립노인전문남양주병원", "kind": "요양병원", "sido": "경기", "sigungu": "남양주시", "address": "경기도 남양주시 수동면 외방로172번길 50, (수동면)", "phone": "031-590-5000", "homepage": "www.gngh.or.kr/", "totalDoctors": 7, "lat": 37.7383995, "lng": 127.3093065, "kidsCare": false, "erCare": false}, {"key": "JDQ4MTYyMiM1MSMkMSMkMCMkOTkkNTgxMzUxIzExIyQxIyQ3IyQxMyQ0NjE0ODEjNTEjJDEjJDIjJDgz", "name": "경기도립노인전문동두천병원", "kind": "요양병원", "sido": "경기", "sigungu": "동두천시", "address": "경기도 동두천시 탑신로 536, (탑동동)", "phone": "031-860-4114", "homepage": null, "totalDoctors": 7, "lat": 37.9009534, "lng": 127.1361038, "kidsCare": false, "erCare": false}, {"key": "JDQ4MTYyMiM1MSMkMSMkMCMkOTkkNTgxMzUxIzIxIyQxIyQ1IyQ3MiQyNjE4MzIjNjEjJDEjJDQjJDgz", "name": "경기도립노인전문시흥병원", "kind": "요양병원", "sido": "경기", "sigungu": "시흥시", "address": "경기도 시흥시 하중로 285, 경기도립 노인전문 시흥병원 (광석동)", "phone": "031-500-7100", "homepage": "http://www.gshospital.com", "totalDoctors": 7, "lat": 37.386257, "lng": 126.8071271, "kidsCare": false, "erCare": false}, {"key": "JDQ4MTYyMiM1MSMkMSMkMCMkOTkkNTgxMzUxIzIxIyQxIyQxIyQ4MiQyNjEwMDIjNDEjJDEjJDQjJDgz", "name": "경기도립노인전문여주병원", "kind": "요양병원", "sido": "경기", "sigungu": "여주시", "address": "경기도 여주시 북내면 도예로 361-14, 361-14", "phone": "031-886-4100", "homepage": "http://www.noinhospital.or.kr/", "totalDoctors": 5, "lat": 37.324967, "lng": 127.669513, "kidsCare": false, "erCare": false}, {"key": "JDQ4MTYyMiM1MSMkMSMkMCMkOTkkNTgxMzUxIzIxIyQxIyQxIyQ4MiQyNjEyMjIjODEjJDEjJDIjJDgz", "name": "경기도립노인전문용인병원", "kind": "요양병원", "sido": "경기", "sigungu": "용인기흥구", "address": "경기도 용인시 기흥구 중부대로 940, (상하동)", "phone": "031-288-0400", "homepage": null, "totalDoctors": 5, "lat": 37.250443, "lng": 127.1555927, "kidsCare": false, "erCare": false}, {"key": "JDQ4MTYyMiM1MSMkMSMkMCMkOTkkNTgxMzUxIzUxIyQxIyQxIyQ4MiQ0NjE0ODEjNjEjJDEjJDQjJDgz", "name": "경기도립정신병원", "kind": "정신병원", "sido": "경기", "sigungu": "용인기흥구", "address": "경기도 용인시 기흥구 중부대로 940, 경기도립정신병원 (상하동)", "phone": "031-300-6200", "homepage": null, "totalDoctors": 5, "lat": 37.2504431, "lng": 127.1555927, "kidsCare": false, "erCare": false}, {"key": "JDQ4MTYyMiM1MSMkMSMkMCMkODkkMzgxMzUxIzExIyQxIyQzIyQxMyQ0NjE0ODEjODEjJDEjJDIjJDgz", "name": "경기도의료원 수원병원", "kind": "종합병원", "sido": "경기", "sigungu": "수원장안구", "address": "경기도 수원시 장안구 수성로245번길 69, (정자동)", "phone": "031-888-0114", "homepage": "https://www.medical.or.kr/suwon/index.do", "totalDoctors": 33, "lat": 37.2918917, "lng": 126.9963375, "kidsCare": true, "erCare": true}, {"key": "JDQ4MTYyMiM1MSMkMSMkMCMkODkkMzgxMzUxIzExIyQyIyQzIyQwMCQzNjE0ODEjNDEjJDEjJDgjJDgz", "name": "경기도의료원 안성병원", "kind": "종합병원", "sido": "경기", "sigungu": "안성시", "address": "경기도 안성시 남파로 95, 경기도의료원 안성병원 (당왕동)", "phone": "031-8046-5000", "homepage": "http://www.medical.or.kr/_as_gpmc", "totalDoctors": 32, "lat": 37.0173296, "lng": 127.2603859, "kidsCare": true, "erCare": true}, {"key": "JDQ4MTYyMiM1MSMkMSMkMCMkODkkMzgxMzUxIzExIyQxIyQ3IyQ4OSQzNjEwMDIjNDEjJDEjJDgjJDgz", "name": "경기도의료원 이천병원", "kind": "종합병원", "sido": "경기", "sigungu": "이천시", "address": "경기도 이천시 경충대로 2742, (관고동)", "phone": "031-630-4200", "homepage": null, "totalDoctors": 32, "lat": 37.2828595, "lng": 127.4330563, "kidsCare": true, "erCare": true}, {"key": "JDQ4MTYyMiM1MSMkMSMkMCMkODkkMzgxMzUxIzExIyQxIyQzIyQ5OSQ0NjE0ODEjNzEjJDEjJDgjJDgz", "name": "경기도의료원의정부병원", "kind": "종합병원", "sido": "경기", "sigungu": "의정부시", "address": "경기도 의정부시 흥선로 142, (의정부동)", "phone": "031-828-5000", "homepage": "http://www.medical.or.kr/_uj_gpmc", "totalDoctors": 22, "lat": 37.741161, "lng": 127.0425004, "kidsCare": true, "erCare": true}, {"key": "JDQ4MTYyMiM1MSMkMSMkMCMkODkkMzgxMzUxIzExIyQyIyQzIyQwMCQyNjEyMjIjNjEjJDEjJDQjJDgz", "name": "경기도의료원파주병원", "kind": "종합병원", "sido": "경기", "sigungu": "파주시", "address": "경기도 파주시 중앙로 207, 경기도립의료원파주병원 (금촌동)", "phone": "031-940-9100", "homepage": "http://www.medical.or.kr/_pj_gpmc", "totalDoctors": 29, "lat": 37.7550649, "lng": 126.7801502, "kidsCare": true, "erCare": true}, {"key": "JDQ4MTYyMiM1MSMkMSMkMCMkODkkMzgxMzUxIzExIyQyIyQzIyQwMCQyNjEwMDIjNzEjJDEjJDgjJDgz", "name": "경기도의료원포천병원", "kind": "종합병원", "sido": "경기", "sigungu": "포천시", "address": "경기도 포천시 포천로 1648, (신읍동)", "phone": "031-539-9114", "homepage": "http://www.pomc.or.kr", "totalDoctors": 25, "lat": 37.9033162, "lng": 127.19828, "kidsCare": true, "erCare": true}, {"key": "JDQ4MTYyMiM1MSMkMSMkMCMkOTkkNTgxMzUxIzMxIyQxIyQzIyQ5MiQyNjEyMjIjNjEjJDEjJDAjJDgz", "name": "경기요양병원", "kind": "요양병원", "sido": "경기", "sigungu": "부천원미구", "address": "경기도 부천시 원미구 부천로 44, 지하1층 일부,1층일부,2~4층호 (심곡동)", "phone": "032-351-2141", "homepage": null, "totalDoctors": 5, "lat": 37.4882434, "lng": 126.7839544, "kidsCare": true, "erCare": false}, {"key": "JDQ4MTYyMiM1MSMkMSMkMCMkOTkkNTgxMzUxIzUxIyQxIyQxIyQ3OSQyNjEyMjIjNTEjJDEjJDIjJDgz", "name": "경기웰니스요양병원", "kind": "요양병원", "sido": "경기", "sigungu": "양주시", "address": "경기도 양주시 평화로1479번길 45, 경기웰니스요양병원 (덕계동)", "phone": "031-828-8500", "homepage": null, "totalDoctors": 7, "lat": 37.8224675, "lng": 127.0466619, "kidsCare": false, "erCare": false}, {"key": "JDQ4MTYyMiM4MSMkMSMkMCMkOTkkMzgxMzUxIzIxIyQxIyQ5IyQ4OSQzNjEwMDIjNzEjJDEjJDgjJDgz", "name": "경대돌담병원", "kind": "병원", "sido": "대구", "sigungu": "대구북구", "address": "대구광역시 북구 호국로 861, 본관동 지상1~5층 (동호동)", "phone": "053-716-5600", "homepage": null, "totalDoctors": 2, "lat": 35.9591961, "lng": 128.5615083, "kidsCare": true, "erCare": false}, {"key": "JDQ4MTYyMiM4MSMkMSMkMCMkOTkkMzgxMzUxIzMxIyQxIyQzIyQ3OSQzNjEyMjIjNjEjJDEjJDAjJDgz", "name": "경대자연병원", "kind": "병원", "sido": "대구", "sigungu": "대구북구", "address": "대구광역시 북구 동화천로 241, 4~7층 (연경동)", "phone": "053-267-5011", "homepage": null, "totalDoctors": 2, "lat": 35.9426488, "lng": 128.617379, "kidsCare": false, "erCare": false}, {"key": "JDQ4MTYyMiM4MSMkMSMkMCMkOTkkNTgxMzUxIzIxIyQxIyQ1IyQ5MiQ0NjEwMDIjNDEjJDEjJDgjJDgz", "name": "경대재활요양병원", "kind": "요양병원", "sido": "대구", "sigungu": "대구서구", "address": "대구광역시 서구 국채보상로 223, 대원빌딩 4~10층 (평리동)", "phone": "053-262-2626", "homepage": null, "totalDoctors": 7, "lat": 35.8708157, "lng": 128.5553458, "kidsCare": false, "erCare": false}, {"key": "JDQ4MTg4MSM1MSMkMSMkMCMkMTMkMzgxMTkxIzExIyQxIyQ3IyQ5MiQzNjEyMjIjNjEjJDEjJDQjJDgz", "name": "경동한방병원", "kind": "한방병원", "sido": "서울", "sigungu": "중랑구", "address": "서울특별시 중랑구 망우로 400, 2층~3층(201호~204호,301호~304호) (망우동)", "phone": "02-2038-0100", "homepage": null, "totalDoctors": 5, "lat": 37.5987157, "lng": 127.0965972, "kidsCare": false, "erCare": false}, {"key": "JDQ4MTYyMiM4MSMkMSMkMCMkOTkkMzgxMzUxIzIxIyQxIyQ5IyQxMyQyNjE0ODEjNjEjJDEjJDAjJDgz", "name": "경북권역재활병원", "kind": "병원", "sido": "경북", "sigungu": "경산시", "address": "경상북도 경산시 미래로 120-0,  (평산동)", "phone": "053-230-8800", "homepage": null, "totalDoctors": 6, "lat": 35.8149451, "lng": 128.7653058, "kidsCare": false, "erCare": false}, {"key": "JDQ4MTYyMiM4MSMkMSMkMCMkODkkMzgxMzUxIzExIyQxIyQzIyQ3OSQyNjEwMDIjNzEjJDEjJDgjJDgz", "name": "경북대학교병원", "kind": "상급종합", "sido": "대구", "sigungu": "대구중구", "address": "대구광역시 중구 동덕로 130, (삼덕동2가, 경북대학교병원)", "phone": "053-200-5114", "homepage": "http://knumc.knu.ac.kr", "totalDoctors": 452, "lat": 35.8662525, "lng": 128.604703, "kidsCare": true, "erCare": true}, {"key": "JDQ4MTYyMiM4MSMkMSMkMCMkNjIkMzgxMzUxIzExIyQxIyQzIyQ3MiQ0NjEwMDIjNTEjJDEjJDIjJDgz", "name": "경북대학교치과병원", "kind": "치과병원", "sido": "대구", "sigungu": "대구중구", "address": "대구광역시 중구 달구벌대로 2175, (삼덕동2가, 경북대학교치과병원)", "phone": "600-7114", "homepage": null, "totalDoctors": 128, "lat": 35.8639749, "lng": 128.6014274, "kidsCare": false, "erCare": false}, {"key": "JDQ4MTYyMiM4MSMkMSMkMCMkOTkkMzgxMzUxIzExIyQxIyQ3IyQ3MiQ0NjE0ODEjNDEjJDEjJDgjJDgz", "name": "경북재활병원", "kind": "병원", "sido": "경북", "sigungu": "안동시", "address": "경상북도 안동시 서후면 광평2길 26, (서후면)", "phone": "054-858-8415", "homepage": null, "totalDoctors": 1, "lat": 36.6539126, "lng": 128.6959574, "kidsCare": true, "erCare": false}, {"key": "JDQ4MTYyMiM4MSMkMSMkMCMkNjIkMzgxMzUxIzExIyQxIyQzIyQ2MiQ0NjE0ODEjNzEjJDEjJDgjJDgz", "name": "경산라온치과병원", "kind": "치과병원", "sido": "경북", "sigungu": "경산시", "address": "경상북도 경산시 경안로 186-0,  2층 (중방동)", "phone": "053-791-3000", "homepage": null, "totalDoctors": 2, "lat": 35.8242493, "lng": 128.7376086, "kidsCare": false, "erCare": false}, {"key": "JDQ4MTYyMiM4MSMkMSMkMCMkNjIkMzgxMzUxIzExIyQxIyQzIyQ3MiQyNjE4MzIjNTEjJDEjJDYjJDgz", "name": "경산미르치과병원", "kind": "치과병원", "sido": "경북", "sigungu": "경산시", "address": "경상북도 경산시 경안로65길 5-10,  (대평동)", "phone": "053-716-1000", "homepage": null, "totalDoctors": 5, "lat": 35.8347404, "lng": 128.7339375, "kidsCare": false, "erCare": false}, {"key": "JDQ4MTYyMiM4MSMkMSMkNCMkODkkMzgxMzUxIzExIyQxIyQzIyQ5OSQyNjEwMDIjNjEjJDEjJDQjJDgz", "name": "경상국립대학교병원", "kind": "상급종합", "sido": "경남", "sigungu": "진주시", "address": "경상남도 진주시 강남로 79, (칠암동)", "phone": "055-750-8000", "homepage": "http://www.gnuh.co.kr/", "totalDoctors": 275, "lat": 35.1759944, "lng": 128.0964924, "kidsCare": true, "erCare": true}, {"key": "JDQ4MTYyMiM4MSMkMSMkNCMkOTkkNTgxMzUxIzExIyQyIyQzIyQwMCQzNjEwMDIjNTEjJDEjJDYjJDgz", "name": "경상남도립양산노인전문병원", "kind": "요양병원", "sido": "경남", "sigungu": "양산시", "address": "경상남도 양산시 상북면 양산대로 1870-64, (상북면)", "phone": "055-375-7275", "homepage": "http://www.gygh.co.kr", "totalDoctors": 6, "lat": 35.4294707, "lng": 129.0708358, "kidsCare": true, "erCare": false}, {"key": "JDQ4MTYyMiM4MSMkMSMkNCMkODkkMzgxMzUxIzExIyQxIyQzIyQ3OSQyNjEyMjIjODEjJDEjJDYjJDgz", "name": "경상남도마산의료원", "kind": "종합병원", "sido": "경남", "sigungu": "창원마산합포구", "address": "경상남도 창원시 마산합포구 3·15대로 231, (중앙동3가)", "phone": "055-249-1000", "homepage": "http://www.mmc.or.kr", "totalDoctors": 20, "lat": 35.1992371, "lng": 128.5655967, "kidsCare": true, "erCare": true}, {"key": "JDQ4MTYyMiM4MSMkMSMkMCMkODkkMzgxMzUxIzExIyQyIyQzIyQwMCQ0NjEwMDIjNjEjJDEjJDAjJDgz", "name": "경상북도김천의료원", "kind": "종합병원", "sido": "경북", "sigungu": "김천시", "address": "경상북도 김천시 모암길 24,  (모암동)", "phone": "054-432-8901", "homepage": "http://www.gcmc.or.kr", "totalDoctors": 42, "lat": 36.1227232, "lng": 128.1264391, "kidsCare": true, "erCare": true}, {"key": "JDQ4MTYyMiM4MSMkMSMkMCMkOTkkNTgxMzUxIzExIyQxIyQzIyQ3OSQzNjE0ODEjNDEjJDEjJDQjJDgz", "name": "경상북도립경산노인전문요양병원", "kind": "요양병원", "sido": "경북", "sigungu": "경산시", "address": "경상북도 경산시 경안로 23-10,  (상방동)", "phone": "053-819-0700", "homepage": "http://www.gssilver.co.kr", "totalDoctors": 7, "lat": 35.809358, "lng": 128.7392, "kidsCare": false, "erCare": false}, {"key": "JDQ4MTYyMiM4MSMkMSMkMCMkOTkkNTgxMzUxIzExIyQxIyQzIyQ5OSQ0NjEwMDIjNjEjJDEjJDQjJDgz", "name": "경상북도립김천노인전문요양병원", "kind": "요양병원", "sido": "경북", "sigungu": "김천시", "address": "경상북도 김천시 어모면 신애길 100-10, (어모면)", "phone": "054-420-7200", "homepage": "http://www.gimcheonhp.co.kr", "totalDoctors": 6, "lat": 36.2111537, "lng": 128.0522562, "kidsCare": false, "erCare": false}, {"key": "JDQ4MTYyMiM4MSMkMSMkMCMkOTkkNTgxMzUxIzExIyQxIyQzIyQ3OSQyNjEwMDIjNjEjJDEjJDQjJDgz", "name": "경상북도립안동노인전문요양병원", "kind": "요양병원", "sido": "경북", "sigungu": "안동시", "address": "경상북도 안동시 남후면 남일로 1463, (남후면)", "phone": "054-851-6000", "homepage": "http://www.andongyuri.co.kr", "totalDoctors": 10, "lat": 36.5229246, "lng": 128.6890979, "kidsCare": false, "erCare": false}, {"key": "JDQ4MTYyMiM4MSMkMSMkMCMkODkkMzgxMzUxIzExIyQyIyQzIyQwMCQzNjEwMDIjNDEjJDEjJDgjJDgz", "name": "경상북도안동의료원", "kind": "종합병원", "sido": "경북", "sigungu": "안동시", "address": "경상북도 안동시 태사2길 55,  (북문동)", "phone": "054-850-6000", "homepage": "http://amc.or.kr", "totalDoctors": 32, "lat": 36.5682206, "lng": 128.7321116, "kidsCare": true, "erCare": true}, {"key": "JDQ4MTYyMiM4MSMkMSMkMCMkODkkMzgxMzUxIzExIyQxIyQzIyQ3OSQzNjE0ODEjNDEjJDEjJDgjJDgz", "name": "경상북도포항의료원", "kind": "종합병원", "sido": "경북", "sigungu": "포항북구", "address": "경상북도 포항시 북구 용흥로 36,  (용흥동)", "phone": "054-247-0551", "homepage": "http://www.pmc.or.kr", "totalDoctors": 30, "lat": 36.0348814, "lng": 129.3549409, "kidsCare": true, "erCare": true}, {"key": "JDQ4MTYyMiM1MSMkMSMkMCMkOTkkMzgxOTYxIzExIyQxIyQ3IyQxMyQyNjE4MzIjNTEjJDEjJDYjJDgz", "name": "경인권역재활병원", "kind": "병원", "sido": "인천", "sigungu": "인천연수구", "address": "인천광역시 연수구 원인재로 263, (연수동)", "phone": "032-899-4591", "homepage": null, "totalDoctors": 3, "lat": 37.4184945, "lng": 126.6896544, "kidsCare": false, "erCare": false}, {"key": "JDQ4MTYyMiM4MSMkMSMkMCMkOTkkMzgxOTYxIzExIyQxIyQzIyQ3OSQzNjE0ODEjNDEjJDEjJDgjJDgz", "name": "경주굿모닝병원", "kind": "병원", "sido": "경북", "sigungu": "경주시", "address": "경상북도 경주시 원화로 397,  (황성동)", "phone": "054-741-1212", "homepage": "http://www.경주굿모닝병원.com", "totalDoctors": 8, "lat": 35.8561685, "lng": 129.218775, "kidsCare": false, "erCare": false}, {"key": "JDQ4MTYyMiM4MSMkMSMkMCMkOTkkMzgxMzUxIzIxIyQxIyQ5IyQxMyQyNjEwMDIjNTEjJDEjJDIjJDgz", "name": "경주센텀병원", "kind": "병원", "sido": "경북", "sigungu": "경주시", "address": "경상북도 경주시 화랑로 130-0,  (황오동)", "phone": "054-620-3000", "homepage": null, "totalDoctors": 6, "lat": 35.8441615, "lng": 129.2150231, "kidsCare": false, "erCare": false}, {"key": "JDQ4MTYyMiM4MSMkMSMkMCMkOTkkNTgxMzUxIzExIyQyIyQ3IyQwMCQzNjE4MzIjNTEjJDEjJDIjJDgz", "name": "경주시립노인전문요양병원", "kind": "요양병원", "sido": "경북", "sigungu": "경주시", "address": "경상북도 경주시 현곡면 충현로 610-120, (현곡면)", "phone": "054-743-6200", "homepage": "http://www.kjho.co.kr", "totalDoctors": 6, "lat": 35.8764006, "lng": 129.1664173, "kidsCare": false, "erCare": false}, {"key": "JDQ4MTYyMiM4MSMkMSMkMCMkOTkkNTgxMzUxIzIxIyQxIyQ1IyQ3MiQyNjE0ODEjNTEjJDEjJDIjJDgz", "name": "경주요양병원", "kind": "요양병원", "sido": "경북", "sigungu": "경주시", "address": "경상북도 경주시 충효구획4길 31-0,  (충효동)", "phone": "054-700-9272", "homepage": null, "totalDoctors": 6, "lat": 35.8474162, "lng": 129.1651158, "kidsCare": false, "erCare": false}, {"key": "JDQ4MTg4MSM1MSMkMSMkMCMkODkkMzgxMzUxIzExIyQxIyQzIyQ4OSQzNjE4MzIjNjEjJDEjJDgjJDgz", "name": "경찰병원", "kind": "종합병원", "sido": "서울", "sigungu": "송파구", "address": "서울특별시 송파구 송이로 123, 국립경찰병원 (가락동)", "phone": "02-3400-1114", "homepage": "http://www.nph.go.kr", "totalDoctors": 100, "lat": 37.4963836, "lng": 127.1235089, "kidsCare": true, "erCare": true}, {"key": "JDQ4MTYyMiM3MSMkMSMkMCMkMTMkMzgxMTkxIzExIyQxIyQ3IyQ3MiQyNjEwMDIjNTEjJDEjJDYjJDgz", "name": "경희궁한방병원", "kind": "한방병원", "sido": "전남", "sigungu": "광주동구", "address": "전남광주통합특별시 동구 밤실로 127, (산수동)", "phone": null, "homepage": null, "totalDoctors": 3, "lat": 35.158828, "lng": 126.9351947, "kidsCare": false, "erCare": false}, {"key": "JDQ4MTg4MSM1MSMkMSMkMCMkOTkkNTgxMzUxIzIxIyQxIyQ1IyQ4OSQzNjE0ODEjODEjJDEjJDYjJDgz", "name": "경희늘푸른노인전문병원", "kind": "요양병원", "sido": "서울", "sigungu": "도봉구", "address": "서울특별시 도봉구 시루봉로 137, (방학동)", "phone": "02-903-9920", "homepage": "http://evergreengh.com/", "totalDoctors": 4, "lat": 37.6631956, "lng": 127.0273968, "kidsCare": false, "erCare": false}, {"key": "JDQ4MTg4MSM1MSMkMSMkMCMkODkkMzgxMzUxIzExIyQxIyQzIyQ4OSQzNjEyMjIjODEjJDEjJDIjJDgz", "name": "경희대학교병원", "kind": "상급종합", "sido": "서울", "sigungu": "동대문구", "address": "서울특별시 동대문구 경희대로 23, (회기동)", "phone": "02-958-8114", "homepage": "http://www.khuh.or.kr/", "totalDoctors": 424, "lat": 37.5941195, "lng": 127.051852, "kidsCare": true, "erCare": true}, {"key": "JDQ4MTg4MSM1MSMkMSMkMCMkNjIkMzgxMzUxIzExIyQxIyQzIyQ3OSQyNjEwMDIjNTEjJDEjJDYjJDgz", "name": "경희대학교치과병원", "kind": "치과병원", "sido": "서울", "sigungu": "동대문구", "address": "서울특별시 동대문구 경희대로 23, (회기동, 경희의료원)", "phone": "02-958-8114", "homepage": "http://www.khudh.or.kr/", "totalDoctors": 132, "lat": 37.5941195, "lng": 127.051852, "kidsCare": false, "erCare": false}, {"key": "JDQ4MTg4MSM1MSMkMSMkMCMkMTMkMzgxMTkxIzExIyQxIyQzIyQ3OSQzNjEwMDIjNDEjJDEjJDQjJDgz", "name": "경희대학교한방병원", "kind": "한방병원", "sido": "서울", "sigungu": "동대문구", "address": "서울특별시 동대문구 경희대로 23, (회기동)", "phone": "02-958-8114", "homepage": "http://www.khuoh.or.kr/", "totalDoctors": 113, "lat": 37.5941195, "lng": 127.051852, "kidsCare": false, "erCare": false}, {"key": "JDQ4MTYyMiM1MSMkMSMkMCMkMTMkMzgxMTkxIzExIyQxIyQ3IyQ3MiQyNjEwMDIjNjEjJDEjJDQjJDgz", "name": "경희도담한방병원", "kind": "한방병원", "sido": "경기", "sigungu": "시흥시", "address": "경기도 시흥시 서울대학로264번길 26-16, 해든메디컬센터 7층 (배곧동)", "phone": "031-313-0312", "homepage": null, "totalDoctors": 2, "lat": 37.3669445, "lng": 126.7256641, "kidsCare": false, "erCare": false}, {"key": "JDQ4MTg4MSM1MSMkMSMkMCMkMTMkMzgxMTkxIzIxIyQxIyQxIyQ5OSQyNjE0ODEjNjEjJDEjJDgjJDgz", "name": "경희디에스한방병원", "kind": "한방병원", "sido": "서울", "sigungu": "강동구", "address": "서울특별시 강동구 구천면로 233, 5층일부,6~7층 (천호동)", "phone": "02-452-7075", "homepage": null, "totalDoctors": 2, "lat": 37.5416398, "lng": 127.1301212, "kidsCare": false, "erCare": false}, {"key": "JDQ4MTYyMiM3MSMkMSMkMCMkMTMkMzgxMTkxIzIxIyQxIyQ1IyQwMyQyNjEwMDIjODEjJDEjJDIjJDgz", "name": "경희미라클한방병원", "kind": "한방병원", "sido": "전남", "sigungu": "광주서구", "address": "전남광주통합특별시 서구 상무번영로 13, 그랜드오피스텔 지하1,지상2층~3층 (치평동)", "phone": "062-372-2333", "homepage": null, "totalDoctors": 3, "lat": 35.151019, "lng": 126.852678, "kidsCare": false, "erCare": false}, {"key": "JDQ4MTYyMiM1MSMkMSMkMCMkMTMkMzgxMTkxIzIxIyQxIyQ5IyQ2MiQzNjE0ODEjNDEjJDEjJDgjJDgz", "name": "경희백한방병원", "kind": "한방병원", "sido": "인천", "sigungu": "인천미추홀구", "address": "인천광역시 미추홀구 아암대로 91, 2층,3층,4층,5층 (용현동)", "phone": "032-887-1079", "homepage": null, "totalDoctors": 6, "lat": 37.4535221, "lng": 126.633373, "kidsCare": false, "erCare": false}, {"key": "JDQ4MTAxMiM1MSMkMSMkMCMkOTkkMzgxMzUxIzExIyQxIyQ3IyQ5OSQzNjE0ODEjNTEjJDEjJDIjJDgz", "name": "경희병원", "kind": "병원", "sido": "부산", "sigungu": "부산사하구", "address": "부산광역시 사하구 다대로 321, (장림동)", "phone": "051-265-7575", "homepage": null, "totalDoctors": 6, "lat": 35.0735355, "lng": 128.9768377, "kidsCare": true, "erCare": false}, {"key": "JDQ4MTYyMiM3MSMkMSMkMCMkMTMkMzgxMTkxIzIxIyQxIyQ1IyQ2MiQ0NjEwMDIjNjEjJDEjJDAjJDgz", "name": "경희삼성한방병원", "kind": "한방병원", "sido": "전남", "sigungu": "광주북구", "address": "전남광주통합특별시 북구 첨단연신로91번길 32-6, 3층 301, 4층 401, 5층 501호 (신용동)", "phone": "062-439-2300", "homepage": null, "totalDoctors": 1, "lat": 35.2067258, "lng": 126.861237, "kidsCare": false, "erCare": false}, {"key": "JDQ4MTg4MSM1MSMkMSMkMCMkMTMkMzgxMTkxIzExIyQxIyQ3IyQxMyQ0NjEwMDIjNjEjJDEjJDAjJDgz", "name": "경희생생한방병원", "kind": "한방병원", "sido": "서울", "sigungu": "광진구", "address": "서울특별시 광진구 동일로 82-1, 생생한방병원 지하1~5층 (자양동)", "phone": "02-465-6575", "homepage": null, "totalDoctors": 5, "lat": 37.539937, "lng": 127.0631077, "kidsCare": false, "erCare": false}, {"key": "JDQ4MTg4MSM1MSMkMSMkMCMkMTMkMzgxMTkxIzIxIyQxIyQxIyQ2MiQyNjE4MzIjNjEjJDEjJDQjJDgz", "name": "경희생생한방병원", "kind": "한방병원", "sido": "서울", "sigungu": "강서구", "address": "서울특별시 강서구 공항대로41길 34, 플러스존 3,4층 (등촌동)", "phone": "02-6954-6575", "homepage": null, "totalDoctors": 4, "lat": 37.5592839, "lng": 126.8457301, "kidsCare": false, "erCare": false}, {"key": "JDQ4MTYyMiM4MSMkMSMkNCMkMTMkMzgxMTkxIzExIyQxIyQzIyQ4MiQyNjE0ODEjNTEjJDEjJDYjJDgz", "name": "경희선한방병원", "kind": "한방병원", "sido": "경남", "sigungu": "김해시", "address": "경상남도 김해시 삼계중앙로 42, 4,6,7,8층 401,601,701,803호 (삼계동)", "phone": "055-339-8875", "homepage": null, "totalDoctors": 3, "lat": 35.260347, "lng": 128.8698587, "kidsCare": false, "erCare": false}, {"key": "JDQ4MTYyMiM1MSMkMSMkMCMkMTMkMzgxMTkxIzIxIyQxIyQxIyQ5OSQ0NjE0ODEjNzEjJDEjJDgjJDgz", "name": "경희수원한방병원", "kind": "한방병원", "sido": "경기", "sigungu": "수원장안구", "address": "경기도 수원시 장안구 경수대로 969, 1,4,5,6층 (송죽동)", "phone": "031-258-1000", "homepage": null, "totalDoctors": 5, "lat": 37.3039314, "lng": 127.0047486, "kidsCare": false, "erCare": false}, {"key": "JDQ4MTYyMiM3MSMkMSMkMCMkMTMkMzgxMTkxIzIxIyQxIyQ1IyQ3MiQyNjEyMjIjNjEjJDEjJDAjJDgz", "name": "경희수한방병원", "kind": "한방병원", "sido": "전남", "sigungu": "광주서구", "address": "전남광주통합특별시 서구 상무대로 1032, 4,5,6,8층 (화정동)", "phone": "062-457-6000", "homepage": null, "totalDoctors": 3, "lat": 35.1514662, "lng": 126.8748676, "kidsCare": false, "erCare": false}, {"key": "JDQ4MTAxMiM1MSMkMSMkMCMkOTkkNTgxMzUxIzIxIyQyIyQ1IyQwMCQyNjE4MzIjODEjJDEjJDIjJDgz", "name": "경희요양병원", "kind": "요양병원", "sido": "부산", "sigungu": "부산북구", "address": "부산광역시 북구 만덕대로 106, (덕천동)", "phone": "051-333-8135", "homepage": null, "totalDoctors": 4, "lat": 35.2125989, "lng": 129.0164317, "kidsCare": false, "erCare": false}, {"key": "JDQ4MTYyMiM4MSMkMSMkNCMkOTkkNTgxMzUxIzExIyQxIyQ3IyQ4OSQyNjE4MzIjODEjJDEjJDYjJDgz", "name": "경희요양병원", "kind": "요양병원", "sido": "경남", "sigungu": "창원마산합포구", "address": "경상남도 창원시 마산합포구 3·15대로 243, 7~11층 (중앙동3가)", "phone": "055-245-9988", "homepage": null, "totalDoctors": 5, "lat": 35.2000088, "lng": 128.5670765, "kidsCare": false, "erCare": false}, {"key": "JDQ4MTg4MSM1MSMkMSMkMCMkMTMkMzgxMTkxIzIxIyQxIyQxIyQ5OSQzNjEwMDIjNzEjJDEjJDgjJDgz", "name": "경희우리한방병원", "kind": "한방병원", "sido": "서울", "sigungu": "영등포구", "address": "서울특별시 영등포구 영중로 28, 영등포 점프밀라노 8층 (영등포동3가)", "phone": "02-1551-1075", "homepage": null, "totalDoctors": 4, "lat": 37.5188562, "lng": 126.9058884, "kidsCare": false, "erCare": false}, {"key": "JDQ4MTYyMiM1MSMkMSMkMCMkMTMkMzgxMTkxIzIxIyQxIyQ1IyQ3MiQzNjEyMjIjODEjJDEjJDYjJDgz", "name": "경희위례한방병원", "kind": "한방병원", "sido": "경기", "sigungu": "성남수정구", "address": "경기도 성남시 수정구 위례광장로 300, 위례중앙타워 4층 410~416호, 421호, 422-1호 (창곡동)", "phone": "031-759-7755", "homepage": null, "totalDoctors": 6, "lat": 37.4734648, "lng": 127.1427026, "kidsCare": false, "erCare": false}, {"key": "JDQ4MTAxMiM1MSMkMSMkMCMkMTMkMzgxMTkxIzExIyQxIyQzIyQ4MiQ0NjE0ODEjNDEjJDEjJDgjJDgz", "name": "경희정도한방병원", "kind": "한방병원", "sido": "부산", "sigungu": "부산수영구", "address": "부산광역시 수영구 수영로 711, 5~15(9층제외)층 (수영동)", "phone": "051-996-0015", "homepage": null, "totalDoctors": 5, "lat": 35.1682815, "lng": 129.1172252, "kidsCare": false, "erCare": false}, {"key": "JDQ4MTg4MSM1MSMkMSMkMCMkNjIkMzgxMzUxIzExIyQxIyQ3IyQ5OSQzNjEyMjIjNjEjJDEjJDQjJDgz", "name": "경희치과병원", "kind": "치과병원", "sido": "서울", "sigungu": "강북구", "address": "서울특별시 강북구 도봉로 358, (번동, 코스타타워)", "phone": "02-996-2828", "homepage": "http://www.khdh.co.kr/", "totalDoctors": 5, "lat": 37.6391454, "lng": 127.0274913, "kidsCare": false, "erCare": false}, {"key": "JDQ4MTYyMiM2MSMkMSMkMiMkNjIkMzgxMzUxIzExIyQxIyQzIyQ4OSQzNjE4MzIjNjEjJDEjJDgjJDgz", "name": "경희치과병원", "kind": "치과병원", "sido": "충남", "sigungu": "태안군", "address": "충청남도 태안군 태안읍 동백로 310, (태안읍)", "phone": "041-673-9800", "homepage": null, "totalDoctors": 3, "lat": 36.7476774, "lng": 126.3039462, "kidsCare": false, "erCare": false}, {"key": "JDQ4MTYyMiM1MSMkMSMkMCMkMTMkMzgxMTkxIzIxIyQxIyQ5IyQ4OSQzNjE4MzIjNjEjJDEjJDAjJDgz", "name": "경희프라임한방병원", "kind": "한방병원", "sido": "경기", "sigungu": "수원권선구", "address": "경기도 수원시 권선구 금곡로 219, 리더스빌딩 5~6층 (금곡동)", "phone": "031-292-2229", "homepage": null, "totalDoctors": 3, "lat": 37.2750009, "lng": 126.9540792, "kidsCare": false, "erCare": false}, {"key": "JDQ4MTYyMiM1MSMkMSMkMCMkMTMkMzgxMTkxIzIxIyQxIyQ1IyQ3MiQyNjEwMDIjODEjJDEjJDIjJDgz", "name": "경희한방병원", "kind": "한방병원", "sido": "인천", "sigungu": "인천계양구", "address": "인천광역시 계양구 새벌로 112, 마스터즈빌딩 5층 (효성동)", "phone": "032-548-1188", "homepage": null, "totalDoctors": 3, "lat": 37.5270737, "lng": 126.7175095, "kidsCare": false, "erCare": false}, {"key": "JDQ4MTYyMiM3MSMkMSMkMCMkMTMkMzgxMTkxIzIxIyQxIyQ1IyQ5OSQ0NjE0ODEjNDEjJDEjJDgjJDgz", "name": "경희한방병원", "kind": "한방병원", "sido": "전남", "sigungu": "광주남구", "address": "전남광주통합특별시 남구 봉선로 8, 지하1, 2~7층 (주월동)", "phone": "062-367-1001", "homepage": null, "totalDoctors": 2, "lat": 35.1323237, "lng": 126.9018591, "kidsCare": false, "erCare": false}, {"key": "JDQ4MTg4MSM1MSMkMSMkMCMkMTMkMzgxMTkxIzIxIyQxIyQxIyQ3OSQ0NjE0ODEjNzEjJDEjJDgjJDgz", "name": "경희황소한방병원", "kind": "한방병원", "sido": "서울", "sigungu": "강북구", "address": "서울특별시 강북구 도봉로 181, (미아동)", "phone": "02-985-7582", "homepage": null, "totalDoctors": 6, "lat": 37.624856, "lng": 127.0262395, "kidsCare": false, "erCare": false}, {"key": "JDQ4MTYyMiM2MSMkMSMkMiMkOTkkNTgxMzUxIzIxIyQyIyQxIyQwMCQyNjE4MzIjNjEjJDEjJDQjJDgz", "name": "계룡장수요양병원", "kind": "요양병원", "sido": "충남", "sigungu": "계룡시", "address": "충청남도 계룡시 엄사면 향적산길 48-8, (엄사면)", "phone": "042-840-7676", "homepage": null, "totalDoctors": 4, "lat": 36.2861107, "lng": 127.217347, "kidsCare": false, "erCare": false}, {"key": "JDQ4MTYyMiM3MSMkMSMkMCMkOTkkMzgxMzUxIzMxIyQxIyQzIyQ4OSQzNjE4MzIjNjEjJDEjJDgjJDgz", "name": "계림병원", "kind": "병원", "sido": "전남", "sigungu": "광주동구", "address": "전남광주통합특별시 동구 중앙로 327, (계림동)", "phone": "062-222-0007", "homepage": null, "totalDoctors": 2, "lat": 35.1609269, "lng": 126.9201601, "kidsCare": true, "erCare": false}, {"key": "JDQ4MTYyMiM4MSMkMSMkMCMkOTkkMzgxMzUxIzIxIyQxIyQ1IyQwMyQzNjEyMjIjNDEjJDEjJDQjJDgz", "name": "계명대학교 경주동산병원", "kind": "병원", "sido": "경북", "sigungu": "경주시", "address": "경상북도 경주시 봉황로 65,  (서부동)", "phone": "054-770-9500", "homepage": "http://kjds.or.kr/new/main/index.php", "totalDoctors": 13, "lat": 35.845537, "lng": 129.2094788, "kidsCare": false, "erCare": false}, {"key": "JDQ4MTYyMiM4MSMkMSMkMCMkODkkMzgxMzUxIzExIyQxIyQzIyQ3MiQzNjEwMDIjNjEjJDEjJDgjJDgz", "name": "계명대학교대구동산병원", "kind": "종합병원", "sido": "대구", "sigungu": "대구중구", "address": "대구광역시 중구 달성로 56, 계명대학교대구동산병원 (동산동)", "phone": "053-250-8114", "homepage": null, "totalDoctors": 38, "lat": 35.8694728, "lng": 128.5831323, "kidsCare": true, "erCare": true}, {"key": "JDQ4MTYyMiM4MSMkMSMkMCMkODkkMzgxMzUxIzExIyQxIyQzIyQ3OSQyNjEyMjIjNjEjJDEjJDQjJDgz", "name": "계명대학교동산병원", "kind": "상급종합", "sido": "대구", "sigungu": "대구달서구", "address": "대구광역시 달서구 달구벌대로 1035, (신당동)", "phone": "1577-6622", "homepage": "http://www.dsmc.or.kr/", "totalDoctors": 376, "lat": 35.8538856, "lng": 128.4801315, "kidsCare": true, "erCare": true}, {"key": "JDU4MTI3MSM2MSMkMSMkMiMkMTMkMzgxMTkxIzExIyQxIyQzIyQ3OSQzNjE4MzIjNjEjJDEjJDQjJDgz", "name": "계양강함한방병원", "kind": "한방병원", "sido": "인천", "sigungu": "인천계양구", "address": "인천광역시 계양구 장제로 736, 3, 4층 (작전동)", "phone": "032-207-1075", "homepage": null, "totalDoctors": 3, "lat": 37.533381, "lng": 126.7344724, "kidsCare": false, "erCare": false}, {"key": "JDQ4MTYyMiM1MSMkMSMkMCMkMTMkMzgxMTkxIzIxIyQxIyQ1IyQ4OSQyNjEwMDIjODEjJDEjJDYjJDgz", "name": "계양다나음한방병원", "kind": "한방병원", "sido": "인천", "sigungu": "인천계양구", "address": "인천광역시 계양구 경명대로 1134, 2~5층 (계산동)", "phone": "032-544-7975", "homepage": null, "totalDoctors": 4, "lat": 37.5428172, "lng": 126.7328837, "kidsCare": true, "erCare": false}, {"key": "JDQ4MTYyMiM1MSMkMSMkMCMkMTMkMzgxMTkxIzIxIyQxIyQ1IyQ4OSQzNjE4MzIjODEjJDEjJDIjJDgz", "name": "고구려한방병원", "kind": "한방병원", "sido": "인천", "sigungu": "인천계양구", "address": "인천광역시 계양구 경명대로 1130, 2~5층 (계산동)", "phone": "032-547-7727", "homepage": null, "totalDoctors": 5, "lat": 37.5428371, "lng": 126.7325184, "kidsCare": false, "erCare": false}, {"key": "JDQ4MTg4MSM1MSMkMSMkMCMkOTkkMzgxMzUxIzMxIyQyIyQzIyQwMCQ0NjE0ODEjNjEjJDEjJDQjJDgz", "name": "고도일병원", "kind": "병원", "sido": "서울", "sigungu": "서초구", "address": "서울특별시 서초구 강남대로 505, (반포동, 고도일 병원)", "phone": "1577-8907", "homepage": "http://www.godoil.com", "totalDoctors": 10, "lat": 37.5070301, "lng": 127.0227848, "kidsCare": false, "erCare": false}, {"key": "JDQ4MTYyMiM1MSMkMSMkMCMkOTkkMzgxOTYxIzIxIyQyIyQxIyQwMCQ0NjEwMDIjNjEjJDEjJDQjJDgz", "name": "고든병원", "kind": "병원", "sido": "경기", "sigungu": "안산단원구", "address": "경기도 안산시 단원구 고잔로 76, 영풍빌딩 408일부,501~502,505,505-1,506호 (고잔동)", "phone": "1577-7870", "homepage": null, "totalDoctors": 7, "lat": 37.3189133, "lng": 126.8348265, "kidsCare": false, "erCare": false}, {"key": "JDQ4MTYyMiM1MSMkMSMkOCMkMTMkMzgxMTkxIzExIyQxIyQzIyQ5OSQzNjE4MzIjNTEjJDEjJDYjJDgz", "name": "고래한방병원", "kind": "한방병원", "sido": "충북", "sigungu": "청주청원구", "address": "충청북도 청주시 청원구 오창읍 과학산업3로 216-0,  508~518호 (오창반도유보라퍼스티지)", "phone": "043-714-3075", "homepage": null, "totalDoctors": 5, "lat": 36.7080664, "lng": 127.4299642, "kidsCare": true, "erCare": false},